[
  {
    "name": "!!Con",
    "topic": "",
    "url": "http://bangbangcon.com/",
    "twitter": "",
    "city": "New York",
    "stateProvince": "NY",
    "country": "United States",
    "eventStartDate": "",
    "eventEndDate": "",
    "cfpStartDate": "",
    "cfpEndDate": "",
    "codeOfConduct": "",
    "latitude": 40.7127837,
    "longitude": -74.0059413,
    "cfpUrl": ""
  },
  {
    "name": "2017@Swift",
    "topic": "",
    "url": "http://www.bagevent.com/event/378252",
    "twitter": "",
    "city": "Shenzen",
    "stateProvince": "",
    "country": "China",
    "eventStartDate": "",
    "eventEndDate": "",
    "cfpStartDate": "",
    "cfpEndDate": "",
    "codeOfConduct": "",
    "latitude": 22.543096,
    "longitude": 114.057865,
    "cfpUrl": ""
  },
  {
    "name": "34C3",
    "topic": "",
    "url": "http://www.ccc.de/en/",
    "twitter": "",
    "city": "Berlin",
    "stateProvince": "",
    "country": "Germany",
    "eventStartDate": "",
    "eventEndDate": "",
    "cfpStartDate": "",
    "cfpEndDate": "",
    "codeOfConduct": "",
    "latitude": 52.52000659999999,
    "longitude": 13.404954,
    "cfpUrl": ""
  },
  {
    "name": "44Con",
    "topic": "",
    "url": "http://44con.com/",
    "twitter": "",
    "city": "London",
    "stateProvince": "",
    "country": "United Kingdom",
    "eventStartDate": "",
    "eventEndDate": "",
    "cfpStartDate": "",
    "cfpEndDate": "",
    "codeOfConduct": "",
    "latitude": 51.5073509,
    "longitude": -0.1277583,
    "cfpUrl": ""
  },
  {
    "name": "@datanativesconf",
    "topic": "",
    "url": "http://datanatives.io/",
    "twitter": "",
    "city": "Berlin",
    "stateProvince": "",
    "country": "Germany",
    "eventStartDate": "",
    "eventEndDate": "",
    "cfpStartDate": "",
    "cfpEndDate": "",
    "codeOfConduct": "",
    "latitude": 52.52000659999999,
    "longitude": 13.404954,
    "cfpUrl": ""
  },
  {
    "name": "ACE",
    "topic": "",
    "url": "http://aceconf.com/",
    "twitter": "",
    "city": "Krakow",
    "stateProvince": "",
    "country": "Poland",
    "eventStartDate": "",
    "eventEndDate": "",
    "cfpStartDate": "",
    "cfpEndDate": "",
    "codeOfConduct": "",
    "latitude": 50.06465009999999,
    "longitude": 19.9449799,
    "cfpUrl": ""
  },
  {
    "name": "ACM CCS",
    "topic": "",
    "url": "http://www.sigsac.org/ccs/CCS2017/papers.html",
    "twitter": "",
    "city": "Dallas",
    "stateProvince": "TX",
    "country": "United States",
    "eventStartDate": "",
    "eventEndDate": "",
    "cfpStartDate": "",
    "cfpEndDate": "",
    "codeOfConduct": "",
    "latitude": 32.7766642,
    "longitude": -96.79698789999999,
    "cfpUrl": ""
  },
  {
    "name": "Active Ingredients",
    "topic": "",
    "url": "http://activeingredients.info/",
    "twitter": "",
    "city": "San Francisco",
    "stateProvince": "CA",
    "country": "United States",
    "eventStartDate": "",
    "eventEndDate": "",
    "cfpStartDate": "",
    "cfpEndDate": "",
    "codeOfConduct": "",
    "latitude": 37.7749295,
    "longitude": -122.4194155,
    "cfpUrl": ""
  },
  {
    "name": "Adobe MAX",
    "topic": "",
    "url": "https://max.adobe.com/",
    "twitter": "",
    "city": "Chicago",
    "stateProvince": "IL",
    "country": "United States",
    "eventStartDate": "",
    "eventEndDate": "",
    "cfpStartDate": "",
    "cfpEndDate": "",
    "codeOfConduct": "",
    "latitude": 41.8781136,
    "longitude": -87.6297982,
    "cfpUrl": ""
  },
  {
    "name": "AfricaHackon",
    "topic": "",
    "url": "http://africahackon.com/",
    "twitter": "",
    "city": "Nairobi",
    "stateProvince": "",
    "country": "Kenya",
    "eventStartDate": "",
    "eventEndDate": "",
    "cfpStartDate": "",
    "cfpEndDate": "",
    "codeOfConduct": "",
    "latitude": -1.2920659,
    "longitude": 36.8219462,
    "cfpUrl": ""
  },
  {
    "name": "Agile 2015",
    "topic": "",
    "url": "https://www.agilealliance.org/",
    "twitter": "",
    "city": "Washington",
    "stateProvince": "DC",
    "country": "United States",
    "eventStartDate": "",
    "eventEndDate": "",
    "cfpStartDate": "",
    "cfpEndDate": "",
    "codeOfConduct": "",
    "latitude": 38.9071923,
    "longitude": -77.0368707,
    "cfpUrl": ""
  },
  {
    "name": "Agile Dev Practices",
    "topic": "",
    "url": "https://www.agilealliance.org/",
    "twitter": "",
    "city": "Postdam",
    "stateProvince": "",
    "country": "Germany",
    "eventStartDate": "",
    "eventEndDate": "",
    "cfpStartDate": "",
    "cfpEndDate": "",
    "codeOfConduct": "",
    "latitude": 52.3905689,
    "longitude": 13.0644729,
    "cfpUrl": ""
  },
  {
    "name": "Agile India",
    "topic": "",
    "url": "https://www.agilealliance.org/",
    "twitter": "",
    "city": "Bangalore",
    "stateProvince": "",
    "country": "India",
    "eventStartDate": "",
    "eventEndDate": "",
    "cfpStartDate": "",
    "cfpEndDate": "",
    "codeOfConduct": "",
    "latitude": 12.9715987,
    "longitude": 77.5945627,
    "cfpUrl": ""
  },
  {
    "name": "Agile Spain",
    "topic": "",
    "url": "https://www.agilealliance.org/",
    "twitter": "",
    "city": "Madrid",
    "stateProvince": "",
    "country": "Spain",
    "eventStartDate": "",
    "eventEndDate": "",
    "cfpStartDate": "",
    "cfpEndDate": "",
    "codeOfConduct": "",
    "latitude": 40.4167754,
    "longitude": -3.7037902,
    "cfpUrl": ""
  },
  {
    "name": "Agile Testing Days",
    "topic": "",
    "url": "",
    "twitter": "",
    "city": "Potsdam",
    "stateProvince": "",
    "country": "Germany",
    "eventStartDate": "",
    "eventEndDate": "",
    "cfpStartDate": "",
    "cfpEndDate": "",
    "codeOfConduct": "",
    "latitude": 52.3905689,
    "longitude": 13.0644729,
    "cfpUrl": ""
  },
  {
    "name": "AIM Utah CIO Summit",
    "topic": "programming",
    "url": "https://www.aimutah.org/Annual-CIO-Summit",
    "twitter": "",
    "city": "Salt Lake City",
    "stateProvince": "UT",
    "country": "united States",
    "eventStartDate": "",
    "eventEndDate": "",
    "cfpStartDate": "",
    "cfpEndDate": "",
    "codeOfConduct": "",
    "latitude": 40.7607793,
    "longitude": -111.8910474,
    "cfpUrl": ""
  },
  {
    "name": "Allied Media Conference",
    "topic": "",
    "url": "https://www.alliedmedia.org/amc",
    "twitter": "",
    "city": "Detroit",
    "stateProvince": "MI",
    "country": "United States",
    "eventStartDate": "",
    "eventEndDate": "",
    "cfpStartDate": "",
    "cfpEndDate": "",
    "codeOfConduct": "",
    "latitude": 42.331427,
    "longitude": -83.0457538,
    "cfpUrl": ""
  },
  {
    "name": "AlterConf",
    "topic": "",
    "url": "https://alterconf.com/",
    "twitter": "",
    "city": "Portland",
    "stateProvince": "OR",
    "country": "United States",
    "eventStartDate": "",
    "eventEndDate": "",
    "cfpStartDate": "",
    "cfpEndDate": "",
    "codeOfConduct": "",
    "latitude": 45.5230622,
    "longitude": -122.6764815,
    "cfpUrl": ""
  },
  {
    "name": "AmsterdamJS",
    "topic": "",
    "url": "http://amsterdamjs.com/",
    "twitter": "",
    "city": "Amsterdam",
    "stateProvince": "",
    "country": "The Netherlands",
    "eventStartDate": "",
    "eventEndDate": "",
    "cfpStartDate": "",
    "cfpEndDate": "",
    "codeOfConduct": "",
    "latitude": 52.3702157,
    "longitude": 4.895167900000001,
    "cfpUrl": ""
  },
  {
    "name": "Android Security Symposium",
    "topic": "",
    "url": "http://usmile.at/symposium",
    "twitter": "",
    "city": "Vienna",
    "stateProvince": "",
    "country": "Austria",
    "eventStartDate": "",
    "eventEndDate": "",
    "cfpStartDate": "",
    "cfpEndDate": "",
    "codeOfConduct": "",
    "latitude": 48.2081743,
    "longitude": 16.3738189,
    "cfpUrl": ""
  },
  {
    "name": "Angular Camp",
    "topic": "",
    "url": "http://angularcamp.org/",
    "twitter": "",
    "city": "Barcelona",
    "stateProvince": "",
    "country": "Spain",
    "eventStartDate": "",
    "eventEndDate": "",
    "cfpStartDate": "",
    "cfpEndDate": "",
    "codeOfConduct": "",
    "latitude": 41.3850639,
    "longitude": 2.1734035,
    "cfpUrl": ""
  },
  {
    "name": "Angular Cruise",
    "topic": "",
    "url": "http://ngcruise.com/",
    "twitter": "",
    "city": "Miami",
    "stateProvince": "FL",
    "country": "United States",
    "eventStartDate": "",
    "eventEndDate": "",
    "cfpStartDate": "",
    "cfpEndDate": "",
    "codeOfConduct": "Yes",
    "latitude": 25.7616798,
    "longitude": -80.1917902,
    "cfpUrl": ""
  },
  {
    "name": "Angular Mix",
    "topic": "",
    "url": "http://angularmix.com/",
    "twitter": "",
    "city": "Orlando",
    "stateProvince": "FL",
    "country": "United States",
    "eventStartDate": "",
    "eventEndDate": "",
    "cfpStartDate": "",
    "cfpEndDate": "",
    "codeOfConduct": "",
    "latitude": 28.5383355,
    "longitude": -81.3792365,
    "cfpUrl": ""
  },
  {
    "name": "AngularUP",
    "topic": "",
    "url": "http://angular-up.com/",
    "twitter": "",
    "city": "Tel Aviv",
    "stateProvince": "",
    "country": "Israel",
    "eventStartDate": "",
    "eventEndDate": "",
    "cfpStartDate": "",
    "cfpEndDate": "",
    "codeOfConduct": "",
    "latitude": 32.0852999,
    "longitude": 34.78176759999999,
    "cfpUrl": ""
  },
  {
    "name": "APIdays",
    "topic": "web platform",
    "url": "http://apidays.io/",
    "twitter": "",
    "city": "San Francisco",
    "stateProvince": "CA",
    "country": "United States",
    "eventStartDate": "",
    "eventEndDate": "",
    "cfpStartDate": "",
    "cfpEndDate": "",
    "codeOfConduct": "",
    "latitude": 37.7749295,
    "longitude": -122.4194155,
    "cfpUrl": ""
  },
  {
    "name": "APIdays",
    "topic": "",
    "url": "http://apidays.io/",
    "twitter": "",
    "city": "Madrid",
    "stateProvince": "",
    "country": "Spain",
    "eventStartDate": "",
    "eventEndDate": "",
    "cfpStartDate": "",
    "cfpEndDate": "",
    "codeOfConduct": "",
    "latitude": 40.4167754,
    "longitude": -3.7037902,
    "cfpUrl": ""
  },
  {
    "name": "App Builders Switzerland",
    "topic": "",
    "url": "http://www.appbuilders.ch/",
    "twitter": "",
    "city": "Lausanne",
    "stateProvince": "",
    "country": "Switzerland",
    "eventStartDate": "",
    "eventEndDate": "",
    "cfpStartDate": "",
    "cfpEndDate": "",
    "codeOfConduct": "",
    "latitude": 46.5196535,
    "longitude": 6.6322734,
    "cfpUrl": ""
  },
  {
    "name": "App Design & Development Conference",
    "topic": "",
    "url": "http://addconf.com/",
    "twitter": "",
    "city": "Barcelona",
    "stateProvince": "",
    "country": "Spain",
    "eventStartDate": "",
    "eventEndDate": "",
    "cfpStartDate": "",
    "cfpEndDate": "",
    "codeOfConduct": "",
    "latitude": 41.3850639,
    "longitude": 2.1734035,
    "cfpUrl": ""
  },
  {
    "name": "Appdevcon 2017",
    "topic": "",
    "url": "http://appdevcon.nl/",
    "twitter": "",
    "city": "Amsterdam",
    "stateProvince": "",
    "country": "The Netherlands",
    "eventStartDate": "",
    "eventEndDate": "",
    "cfpStartDate": "",
    "cfpEndDate": "",
    "codeOfConduct": "",
    "latitude": 52.3702157,
    "longitude": 4.895167900000001,
    "cfpUrl": ""
  },
  {
    "name": "AtlSecCon",
    "topic": "",
    "url": "http://atlseccon.com/",
    "twitter": "",
    "city": "Halifax",
    "stateProvince": "Nova Scotia",
    "country": "Canada",
    "eventStartDate": "",
    "eventEndDate": "",
    "cfpStartDate": "",
    "cfpEndDate": "",
    "codeOfConduct": "",
    "latitude": 44.64876350000001,
    "longitude": -63.5752387,
    "cfpUrl": ""
  },
  {
    "name": "ATypI",
    "topic": "",
    "url": "https://www.atypi.org/",
    "twitter": "",
    "city": "Sao Paulo",
    "stateProvince": "",
    "country": "Brazil",
    "eventStartDate": "",
    "eventEndDate": "",
    "cfpStartDate": "",
    "cfpEndDate": "",
    "codeOfConduct": "",
    "latitude": -23.5505199,
    "longitude": -46.63330939999999,
    "cfpUrl": ""
  },
  {
    "name": "AVAR",
    "topic": "",
    "url": "http://aavar.org/",
    "twitter": "",
    "city": "Bejing",
    "stateProvince": "",
    "country": "China",
    "eventStartDate": "",
    "eventEndDate": "",
    "cfpStartDate": "",
    "cfpEndDate": "",
    "codeOfConduct": "",
    "latitude": 39.90419989999999,
    "longitude": 116.4073963,
    "cfpUrl": ""
  },
  {
    "name": "AWS Re:Invent",
    "topic": "",
    "url": "",
    "twitter": "",
    "city": "",
    "stateProvince": "",
    "country": "",
    "eventStartDate": "",
    "eventEndDate": "",
    "cfpStartDate": "",
    "cfpEndDate": "",
    "codeOfConduct": "",
    "latitude": "",
    "longitude": "",
    "cfpUrl": ""
  },
  {
    "name": "BASTA!",
    "topic": "",
    "url": "https://basta.net/en/",
    "twitter": "",
    "city": "Mainz",
    "stateProvince": "",
    "country": "Germany",
    "eventStartDate": "",
    "eventEndDate": "",
    "cfpStartDate": "",
    "cfpEndDate": "",
    "codeOfConduct": "",
    "latitude": 49.9928617,
    "longitude": 8.2472526,
    "cfpUrl": ""
  },
  {
    "name": "Beyond Tellerrand",
    "topic": "",
    "url": "http://beyondtellerrand.com/events/duesseldorf-2017",
    "twitter": "",
    "city": "Düsseldorf",
    "stateProvince": "",
    "country": "Germany",
    "eventStartDate": "",
    "eventEndDate": "",
    "cfpStartDate": "",
    "cfpEndDate": "",
    "codeOfConduct": "",
    "latitude": 51.2277411,
    "longitude": 6.7734556,
    "cfpUrl": ""
  },
  {
    "name": "BI2015",
    "topic": "",
    "url": "",
    "twitter": "",
    "city": "Nice",
    "stateProvince": "",
    "country": "France",
    "eventStartDate": "",
    "eventEndDate": "",
    "cfpStartDate": "",
    "cfpEndDate": "",
    "codeOfConduct": "",
    "latitude": 43.7101728,
    "longitude": 7.261953200000001,
    "cfpUrl": ""
  },
  {
    "name": "Big Data Conference",
    "topic": "",
    "url": "",
    "twitter": "",
    "city": "Hyderabad",
    "stateProvince": "",
    "country": "India",
    "eventStartDate": "",
    "eventEndDate": "",
    "cfpStartDate": "",
    "cfpEndDate": "",
    "codeOfConduct": "",
    "latitude": 17.385044,
    "longitude": 78.486671,
    "cfpUrl": ""
  },
  {
    "name": "Big Ruby Conf",
    "topic": "",
    "url": "",
    "twitter": "",
    "city": "Dallas",
    "stateProvince": "TX",
    "country": "United States",
    "eventStartDate": "",
    "eventEndDate": "",
    "cfpStartDate": "",
    "cfpEndDate": "",
    "codeOfConduct": "",
    "latitude": 32.7766642,
    "longitude": -96.79698789999999,
    "cfpUrl": ""
  },
  {
    "name": "Black Hat",
    "topic": "",
    "url": "http://www.blackhat.com/",
    "twitter": "",
    "city": "Las Vegas",
    "stateProvince": "NV",
    "country": "United States",
    "eventStartDate": "",
    "eventEndDate": "",
    "cfpStartDate": "",
    "cfpEndDate": "",
    "codeOfConduct": "",
    "latitude": 36.1699412,
    "longitude": -115.1398296,
    "cfpUrl": ""
  },
  {
    "name": "BlackHat Asia",
    "topic": "",
    "url": "http://www.blackhat.com/asia-17/",
    "twitter": "",
    "city": "Singapore",
    "stateProvince": "",
    "country": "Singapore",
    "eventStartDate": "",
    "eventEndDate": "",
    "cfpStartDate": "",
    "cfpEndDate": "",
    "codeOfConduct": "",
    "latitude": 1.352083,
    "longitude": 103.819836,
    "cfpUrl": ""
  },
  {
    "name": "BlackHat EU",
    "topic": "",
    "url": "http://europe-briefings-cfp.blackhat.com/",
    "twitter": "",
    "city": "London",
    "stateProvince": "",
    "country": "United Kingdom",
    "eventStartDate": "",
    "eventEndDate": "",
    "cfpStartDate": "",
    "cfpEndDate": "",
    "codeOfConduct": "",
    "latitude": 51.5073509,
    "longitude": -0.1277583,
    "cfpUrl": ""
  },
  {
    "name": "BlackHat US",
    "topic": "",
    "url": "http://www.blackhat.com/",
    "twitter": "",
    "city": "Las Vegas",
    "stateProvince": "NV",
    "country": "United States",
    "eventStartDate": "",
    "eventEndDate": "",
    "cfpStartDate": "",
    "cfpEndDate": "",
    "codeOfConduct": "",
    "latitude": 36.1699412,
    "longitude": -115.1398296,
    "cfpUrl": ""
  },
  {
    "name": "Blend Web Mix",
    "topic": "",
    "url": "",
    "twitter": "",
    "city": "Lyon",
    "stateProvince": "",
    "country": "France",
    "eventStartDate": "",
    "eventEndDate": "",
    "cfpStartDate": "",
    "cfpEndDate": "",
    "codeOfConduct": "",
    "latitude": 45.764043,
    "longitude": 4.835659,
    "cfpUrl": ""
  },
  {
    "name": "boost(js)",
    "topic": "",
    "url": "http://boostjs.io/",
    "twitter": "",
    "city": "Tel Aviv",
    "stateProvince": "",
    "country": "Israel",
    "eventStartDate": "",
    "eventEndDate": "",
    "cfpStartDate": "",
    "cfpEndDate": "",
    "codeOfConduct": "",
    "latitude": 32.0852999,
    "longitude": 34.78176759999999,
    "cfpUrl": ""
  },
  {
    "name": "Booster",
    "topic": "",
    "url": "",
    "twitter": "",
    "city": "Bergen",
    "stateProvince": "",
    "country": "Norway",
    "eventStartDate": "",
    "eventEndDate": "",
    "cfpStartDate": "",
    "cfpEndDate": "",
    "codeOfConduct": "",
    "latitude": 60.39126279999999,
    "longitude": 5.3220544,
    "cfpUrl": ""
  },
  {
    "name": "Bornhack",
    "topic": "",
    "url": "http://bornhack.dk/",
    "twitter": "",
    "city": "Bornholm",
    "stateProvince": "",
    "country": "Denmark",
    "eventStartDate": "",
    "eventEndDate": "",
    "cfpStartDate": "",
    "cfpEndDate": "",
    "codeOfConduct": "",
    "latitude": 55.160428,
    "longitude": 14.8668836,
    "cfpUrl": ""
  },
  {
    "name": "BotConf",
    "topic": "",
    "url": "http://www.botconf.eu/",
    "twitter": "",
    "city": "Montpellier",
    "stateProvince": "",
    "country": "France",
    "eventStartDate": "",
    "eventEndDate": "",
    "cfpStartDate": "",
    "cfpEndDate": "",
    "codeOfConduct": "",
    "latitude": 43.610769,
    "longitude": 3.876716,
    "cfpUrl": ""
  },
  {
    "name": "BrazilJS",
    "topic": "",
    "url": "http://braziljs.org/conf/",
    "twitter": "",
    "city": "Porto Alegre",
    "stateProvince": "",
    "country": "Brazil",
    "eventStartDate": "",
    "eventEndDate": "",
    "cfpStartDate": "",
    "cfpEndDate": "",
    "codeOfConduct": "",
    "latitude": -30.0346564,
    "longitude": -51.2176584,
    "cfpUrl": ""
  },
  {
    "name": "British node conf",
    "topic": "",
    "url": "",
    "twitter": "",
    "city": "London",
    "stateProvince": "",
    "country": "United Kingdom",
    "eventStartDate": "",
    "eventEndDate": "",
    "cfpStartDate": "",
    "cfpEndDate": "",
    "codeOfConduct": "",
    "latitude": 51.5073509,
    "longitude": -0.1277583,
    "cfpUrl": ""
  },
  {
    "name": "BruCon",
    "topic": "",
    "url": "http://brucon.org",
    "twitter": "",
    "city": "Bruxelles",
    "stateProvince": "",
    "country": "Belgium",
    "eventStartDate": "",
    "eventEndDate": "",
    "cfpStartDate": "",
    "cfpEndDate": "",
    "codeOfConduct": "",
    "latitude": 50.8503463,
    "longitude": 4.3517211,
    "cfpUrl": ""
  },
  {
    "name": "BSides Canberra",
    "topic": "",
    "url": "http://www.bsidesau.com.au/",
    "twitter": "",
    "city": "Canberra",
    "stateProvince": "",
    "country": "Australia",
    "eventStartDate": "",
    "eventEndDate": "",
    "cfpStartDate": "",
    "cfpEndDate": "",
    "codeOfConduct": "",
    "latitude": -35.2809368,
    "longitude": 149.1300092,
    "cfpUrl": ""
  },
  {
    "name": "BSidesLjubljana",
    "topic": "",
    "url": "http://bsidesljubljana.si/",
    "twitter": "",
    "city": "Ljubljana",
    "stateProvince": "",
    "country": "Slovenia",
    "eventStartDate": "",
    "eventEndDate": "",
    "cfpStartDate": "",
    "cfpEndDate": "",
    "codeOfConduct": "",
    "latitude": 46.0569465,
    "longitude": 14.5057515,
    "cfpUrl": ""
  },
  {
    "name": "BSidesMunich @BSidesMunich",
    "topic": "",
    "url": "http://sites.google.com/view/bsidesmunich2017",
    "twitter": "",
    "city": "Munich",
    "stateProvince": "",
    "country": "Germany",
    "eventStartDate": "",
    "eventEndDate": "",
    "cfpStartDate": "",
    "cfpEndDate": "",
    "codeOfConduct": "",
    "latitude": 48.1351253,
    "longitude": 11.5819805,
    "cfpUrl": ""
  },
  {
    "name": "Budapest NodeConf 2017",
    "topic": "",
    "url": "http://nodeconf.risingstack.com/",
    "twitter": "",
    "city": "Budapest",
    "stateProvince": "",
    "country": "Hungary",
    "eventStartDate": "",
    "eventEndDate": "",
    "cfpStartDate": "",
    "cfpEndDate": "",
    "codeOfConduct": "",
    "latitude": 47.497912,
    "longitude": 19.040235,
    "cfpUrl": ""
  },
  {
    "name": "Buildstuff lithuania",
    "topic": "",
    "url": "",
    "twitter": "",
    "city": "",
    "stateProvince": "",
    "country": "Lithuania",
    "eventStartDate": "",
    "eventEndDate": "",
    "cfpStartDate": "",
    "cfpEndDate": "",
    "codeOfConduct": "",
    "latitude": 55.169438,
    "longitude": 23.881275,
    "cfpUrl": ""
  },
  {
    "name": "Bulgaria Web Summit",
    "topic": "",
    "url": "http://bulgariawebsummit.com/",
    "twitter": "",
    "city": "Sofia",
    "stateProvince": "",
    "country": "Bulgaria",
    "eventStartDate": "",
    "eventEndDate": "",
    "cfpStartDate": "",
    "cfpEndDate": "",
    "codeOfConduct": "",
    "latitude": 42.6977082,
    "longitude": 23.3218675,
    "cfpUrl": ""
  },
  {
    "name": "CanSecWest",
    "topic": "",
    "url": "http://cansecwest.com/",
    "twitter": "",
    "city": "Vancouver",
    "stateProvince": "BC",
    "country": "Canada",
    "eventStartDate": "",
    "eventEndDate": "",
    "cfpStartDate": "",
    "cfpEndDate": "",
    "codeOfConduct": "",
    "latitude": 49.2827291,
    "longitude": -123.1207375,
    "cfpUrl": ""
  },
  {
    "name": "canvas",
    "topic": "",
    "url": "",
    "twitter": "",
    "city": "Birmingham",
    "stateProvince": "",
    "country": "United Kingdom",
    "eventStartDate": "",
    "eventEndDate": "",
    "cfpStartDate": "",
    "cfpEndDate": "",
    "codeOfConduct": "",
    "latitude": 52.48624299999999,
    "longitude": -1.890401,
    "cfpUrl": ""
  },
  {
    "name": "CapitolJS",
    "topic": "web platform",
    "url": "http://capitoljs.com",
    "twitter": "@capitoljs",
    "city": "Arlington",
    "stateProvince": "VA",
    "country": "United States",
    "eventStartDate": null,
    "eventEndDate": null,
    "cfpStartDate": "",
    "cfpEndDate": "",
    "codeOfConduct": "",
    "latitude": 38.8816208,
    "longitude": -77.09098089999999,
    "cfpUrl": ""
  },
  {
    "name": "Cardis",
    "topic": "",
    "url": "http://2017.cardis.org/call_papers.html",
    "twitter": "",
    "city": "Lugano",
    "stateProvince": "",
    "country": "Switzerland",
    "eventStartDate": "",
    "eventEndDate": "",
    "cfpStartDate": "",
    "cfpEndDate": "",
    "codeOfConduct": "",
    "latitude": 46.0036778,
    "longitude": 8.951051999999999,
    "cfpUrl": ""
  },
  {
    "name": "CARO",
    "topic": "",
    "url": "http://2017.caro.org/",
    "twitter": "",
    "city": "Krakow",
    "stateProvince": "",
    "country": "Poland",
    "eventStartDate": "",
    "eventEndDate": "",
    "cfpStartDate": "",
    "cfpEndDate": "",
    "codeOfConduct": "",
    "latitude": 50.06465009999999,
    "longitude": 19.9449799,
    "cfpUrl": ""
  },
  {
    "name": "CascadiaFest",
    "topic": "",
    "url": "",
    "twitter": "",
    "city": "Washington",
    "stateProvince": "DC",
    "country": "United States",
    "eventStartDate": "",
    "eventEndDate": "",
    "cfpStartDate": "",
    "cfpEndDate": "",
    "codeOfConduct": "",
    "latitude": 38.9071923,
    "longitude": -77.0368707,
    "cfpUrl": ""
  },
  {
    "name": "CasITConf",
    "topic": "",
    "url": "",
    "twitter": "",
    "city": "Seattle",
    "stateProvince": "WA",
    "country": "United States",
    "eventStartDate": "",
    "eventEndDate": "",
    "cfpStartDate": "",
    "cfpEndDate": "",
    "codeOfConduct": "",
    "latitude": 47.6062095,
    "longitude": -122.3320708,
    "cfpUrl": ""
  },
  {
    "name": "CHES",
    "topic": "",
    "url": "http://www.chesworkshop.org/",
    "twitter": "",
    "city": "Taipei City",
    "stateProvince": "",
    "country": "Taiwan",
    "eventStartDate": "",
    "eventEndDate": "",
    "cfpStartDate": "",
    "cfpEndDate": "",
    "codeOfConduct": "",
    "latitude": 25.0329694,
    "longitude": 121.5654177,
    "cfpUrl": ""
  },
  {
    "name": "Chrome Dev Summit 2017",
    "topic": "",
    "url": "http://developer.chrome.com/devsummit/",
    "twitter": "",
    "city": "San Francisco",
    "stateProvince": "CA",
    "country": "United States",
    "eventStartDate": "",
    "eventEndDate": "",
    "cfpStartDate": "",
    "cfpEndDate": "",
    "codeOfConduct": "",
    "latitude": 37.7749295,
    "longitude": -122.4194155,
    "cfpUrl": ""
  },
  {
    "name": "CircleCityCon",
    "topic": "",
    "url": "http://circlecitycon.com/",
    "twitter": "",
    "city": "Indianapolis",
    "stateProvince": "IN",
    "country": "United States",
    "eventStartDate": "",
    "eventEndDate": "",
    "cfpStartDate": "",
    "cfpEndDate": "",
    "codeOfConduct": "",
    "latitude": 39.768403,
    "longitude": -86.158068,
    "cfpUrl": ""
  },
  {
    "name": "CocoaConf Chicago 2017",
    "topic": "",
    "url": "http://cocoaconf.com/chicago-2017/home",
    "twitter": "",
    "city": "Chicago",
    "stateProvince": "IL",
    "country": "United States",
    "eventStartDate": "",
    "eventEndDate": "",
    "cfpStartDate": "",
    "cfpEndDate": "",
    "codeOfConduct": "",
    "latitude": 41.8781136,
    "longitude": -87.6297982,
    "cfpUrl": ""
  },
  {
    "name": "CocoaLove",
    "topic": "",
    "url": "",
    "twitter": "",
    "city": "Philadelphia",
    "stateProvince": "PA",
    "country": "United States",
    "eventStartDate": "",
    "eventEndDate": "",
    "cfpStartDate": "",
    "cfpEndDate": "",
    "codeOfConduct": "",
    "latitude": 39.9525839,
    "longitude": -75.1652215,
    "cfpUrl": ""
  },
  {
    "name": "Code",
    "topic": "",
    "url": "http://www.webdirections.org/code/",
    "twitter": "",
    "city": "Brisbane",
    "stateProvince": "",
    "country": "Australia",
    "eventStartDate": "",
    "eventEndDate": "",
    "cfpStartDate": "",
    "cfpEndDate": "",
    "codeOfConduct": "",
    "latitude": -27.4697707,
    "longitude": 153.0251235,
    "cfpUrl": ""
  },
  {
    "name": "Code on the Beach",
    "topic": "",
    "url": "https://www.codeonthebeach.com/",
    "twitter": "",
    "city": "Jacksonville",
    "stateProvince": "FL",
    "country": "United States",
    "eventStartDate": "",
    "eventEndDate": "",
    "cfpStartDate": "",
    "cfpEndDate": "",
    "codeOfConduct": "",
    "latitude": 30.3321838,
    "longitude": -81.65565099999999,
    "cfpUrl": ""
  },
  {
    "name": "Codemania",
    "topic": "",
    "url": "http://www.codemania.co.nz/",
    "twitter": "",
    "city": "Auckland",
    "stateProvince": "",
    "country": "New Zealand",
    "eventStartDate": "",
    "eventEndDate": "",
    "cfpStartDate": "",
    "cfpEndDate": "",
    "codeOfConduct": "",
    "latitude": -36.8484597,
    "longitude": 174.7633315,
    "cfpUrl": ""
  },
  {
    "name": "Codemotion",
    "topic": "",
    "url": "",
    "twitter": "",
    "city": "Rome",
    "stateProvince": "",
    "country": "Italy",
    "eventStartDate": "",
    "eventEndDate": "",
    "cfpStartDate": "",
    "cfpEndDate": "",
    "codeOfConduct": "",
    "latitude": 41.9027835,
    "longitude": 12.4963655,
    "cfpUrl": ""
  },
  {
    "name": "Codemotion",
    "topic": "",
    "url": "",
    "twitter": "",
    "city": "Madrid",
    "stateProvince": "",
    "country": "Spain",
    "eventStartDate": "",
    "eventEndDate": "",
    "cfpStartDate": "",
    "cfpEndDate": "",
    "codeOfConduct": "",
    "latitude": 40.4167754,
    "longitude": -3.7037902,
    "cfpUrl": ""
  },
  {
    "name": "CodePaLOUsa",
    "topic": "",
    "url": "http://www.codepalousa.com",
    "twitter": "",
    "city": "Louisville",
    "stateProvince": "KY",
    "country": "United States",
    "eventStartDate": "",
    "eventEndDate": "",
    "cfpStartDate": "",
    "cfpEndDate": "",
    "codeOfConduct": "",
    "latitude": 38.2526647,
    "longitude": -85.7584557,
    "cfpUrl": ""
  },
  {
    "name": "Coder Cruise",
    "topic": "",
    "url": "http://www.codercruise.com/",
    "twitter": "",
    "city": "New Orlean",
    "stateProvince": "LA",
    "country": "United States",
    "eventStartDate": "",
    "eventEndDate": "",
    "cfpStartDate": "",
    "cfpEndDate": "",
    "codeOfConduct": "Yes",
    "latitude": 29.95106579999999,
    "longitude": -90.0715323,
    "cfpUrl": ""
  },
  {
    "name": "ColdFront",
    "topic": "",
    "url": "http://coldfront.co/",
    "twitter": "",
    "city": "Copenhagen",
    "stateProvince": "",
    "country": "Denmark",
    "eventStartDate": "",
    "eventEndDate": "",
    "cfpStartDate": "",
    "cfpEndDate": "",
    "codeOfConduct": "",
    "latitude": 55.6760968,
    "longitude": 12.5683372,
    "cfpUrl": ""
  },
  {
    "name": "Confab Intensive",
    "topic": "",
    "url": "",
    "twitter": "",
    "city": "Portland",
    "stateProvince": "OR",
    "country": "United States",
    "eventStartDate": "",
    "eventEndDate": "",
    "cfpStartDate": "",
    "cfpEndDate": "",
    "codeOfConduct": "",
    "latitude": 45.5230622,
    "longitude": -122.6764815,
    "cfpUrl": ""
  },
  {
    "name": "Conference for the Association of Software Testing",
    "topic": "",
    "url": "",
    "twitter": "",
    "city": "Grand Rapids",
    "stateProvince": "MI",
    "country": "United States",
    "eventStartDate": "",
    "eventEndDate": "",
    "cfpStartDate": "",
    "cfpEndDate": "",
    "codeOfConduct": "",
    "latitude": 42.9633599,
    "longitude": -85.6680863,
    "cfpUrl": ""
  },
  {
    "name": "Confidence",
    "topic": "",
    "url": "http://confidence.org.pl/en/",
    "twitter": "",
    "city": "Krakow",
    "stateProvince": "",
    "country": "Poland",
    "eventStartDate": "",
    "eventEndDate": "",
    "cfpStartDate": "",
    "cfpEndDate": "",
    "codeOfConduct": "",
    "latitude": 50.06465009999999,
    "longitude": 19.9449799,
    "cfpUrl": ""
  },
  {
    "name": "ConFoo Vancouver",
    "topic": "",
    "url": "http://confoo.ca/en/",
    "twitter": "",
    "city": "Vancouver",
    "stateProvince": "BC",
    "country": "Canada",
    "eventStartDate": "",
    "eventEndDate": "",
    "cfpStartDate": "",
    "cfpEndDate": "",
    "codeOfConduct": "",
    "latitude": 49.2827291,
    "longitude": -123.1207375,
    "cfpUrl": ""
  },
  {
    "name": "CONFRONT",
    "topic": "",
    "url": "http://confront.se/",
    "twitter": "",
    "city": "Malmö",
    "stateProvince": "",
    "country": "Sweden",
    "eventStartDate": "",
    "eventEndDate": "",
    "cfpStartDate": "",
    "cfpEndDate": "",
    "codeOfConduct": "",
    "latitude": 55.604981,
    "longitude": 13.003822,
    "cfpUrl": ""
  },
  {
    "name": "ConnectJS",
    "topic": "",
    "url": "",
    "twitter": "",
    "city": "Atlanta",
    "stateProvince": "GA",
    "country": "United States",
    "eventStartDate": "",
    "eventEndDate": "",
    "cfpStartDate": "",
    "cfpEndDate": "",
    "codeOfConduct": "",
    "latitude": 33.7489954,
    "longitude": -84.3879824,
    "cfpUrl": ""
  },
  {
    "name": "ContainerCamp",
    "topic": "",
    "url": "",
    "twitter": "",
    "city": "London",
    "stateProvince": "",
    "country": "United Kingdom",
    "eventStartDate": "",
    "eventEndDate": "",
    "cfpStartDate": "",
    "cfpEndDate": "",
    "codeOfConduct": "",
    "latitude": 51.5073509,
    "longitude": -0.1277583,
    "cfpUrl": ""
  },
  {
    "name": "Continuous Lifecycle Conference",
    "topic": "",
    "url": "",
    "twitter": "",
    "city": "Mannheim",
    "stateProvince": "",
    "country": "Germany",
    "eventStartDate": "",
    "eventEndDate": "",
    "cfpStartDate": "",
    "cfpEndDate": "",
    "codeOfConduct": "",
    "latitude": 49.4874592,
    "longitude": 8.466039499999999,
    "cfpUrl": ""
  },
  {
    "name": "Converge SE",
    "topic": "",
    "url": "http://convergese.com/",
    "twitter": "",
    "city": "Columbia",
    "stateProvince": "SC",
    "country": "United States",
    "eventStartDate": "",
    "eventEndDate": "",
    "cfpStartDate": "",
    "cfpEndDate": "",
    "codeOfConduct": "Unspecified",
    "latitude": 34.0007104,
    "longitude": -81.0348144,
    "cfpUrl": ""
  },
  {
    "name": "Copenhagen Context",
    "topic": "",
    "url": "",
    "twitter": "",
    "city": "Copenhagen",
    "stateProvince": "",
    "country": "Denmark",
    "eventStartDate": "",
    "eventEndDate": "",
    "cfpStartDate": "",
    "cfpEndDate": "",
    "codeOfConduct": "",
    "latitude": 55.6760968,
    "longitude": 12.5683372,
    "cfpUrl": ""
  },
  {
    "name": "Craft Conference",
    "topic": "programming",
    "url": "http://craft-conf.com/",
    "twitter": "@CraftConf",
    "city": "Budapest",
    "stateProvince": "",
    "country": "Hungary",
    "eventStartDate": "",
    "eventEndDate": "",
    "cfpStartDate": "",
    "cfpEndDate": "",
    "codeOfConduct": "",
    "latitude": 47.497912,
    "longitude": 19.040235,
    "cfpUrl": ""
  },
  {
    "name": "CrikeyCon",
    "topic": "",
    "url": "http://www.crikeycon.com/",
    "twitter": "",
    "city": "Brisbane",
    "stateProvince": "",
    "country": "Australia",
    "eventStartDate": "",
    "eventEndDate": "",
    "cfpStartDate": "",
    "cfpEndDate": "",
    "codeOfConduct": "",
    "latitude": -27.4697707,
    "longitude": 153.0251235,
    "cfpUrl": ""
  },
  {
    "name": "CSS Day",
    "topic": "",
    "url": "http://cssday.nl/2017",
    "twitter": "",
    "city": "Amsterdam",
    "stateProvince": "",
    "country": "The Netherlands",
    "eventStartDate": "",
    "eventEndDate": "",
    "cfpStartDate": "",
    "cfpEndDate": "",
    "codeOfConduct": "",
    "latitude": 52.3702157,
    "longitude": 4.895167900000001,
    "cfpUrl": ""
  },
  {
    "name": "CSS-Minsk-JS Conf",
    "topic": "",
    "url": "http://css-minsk-js.by/",
    "twitter": "",
    "city": "Minsk",
    "stateProvince": "",
    "country": "Belarus",
    "eventStartDate": "",
    "eventEndDate": "",
    "cfpStartDate": "",
    "cfpEndDate": "",
    "codeOfConduct": "",
    "latitude": 53.90453979999999,
    "longitude": 27.5615244,
    "cfpUrl": ""
  },
  {
    "name": "css/sass conference",
    "topic": "",
    "url": "",
    "twitter": "",
    "city": "",
    "stateProvince": "",
    "country": "",
    "eventStartDate": "",
    "eventEndDate": "",
    "cfpStartDate": "",
    "cfpEndDate": "",
    "codeOfConduct": "",
    "latitude": "",
    "longitude": "",
    "cfpUrl": ""
  },
  {
    "name": "CSSConf",
    "topic": "",
    "url": "",
    "twitter": "",
    "city": "Miami",
    "stateProvince": "FL",
    "country": "United States",
    "eventStartDate": "",
    "eventEndDate": "",
    "cfpStartDate": "",
    "cfpEndDate": "",
    "codeOfConduct": "",
    "latitude": 25.7616798,
    "longitude": -80.1917902,
    "cfpUrl": ""
  },
  {
    "name": "CSSConf AU",
    "topic": "",
    "url": "",
    "twitter": "",
    "city": "Melbourne",
    "stateProvince": "",
    "country": "Australia",
    "eventStartDate": "",
    "eventEndDate": "",
    "cfpStartDate": "",
    "cfpEndDate": "",
    "codeOfConduct": "",
    "latitude": -37.8136276,
    "longitude": 144.9630576,
    "cfpUrl": ""
  },
  {
    "name": "CSSConf Budapest",
    "topic": "",
    "url": "http://cssconfbp.rocks/",
    "twitter": "",
    "city": "Budapest",
    "stateProvince": "",
    "country": "Hungary",
    "eventStartDate": "",
    "eventEndDate": "",
    "cfpStartDate": "",
    "cfpEndDate": "",
    "codeOfConduct": "Yes",
    "latitude": 47.497912,
    "longitude": 19.040235,
    "cfpUrl": ""
  },
  {
    "name": "DaFED",
    "topic": "",
    "url": "",
    "twitter": "",
    "city": "Novi Sad",
    "stateProvince": "",
    "country": "Serbia",
    "eventStartDate": "",
    "eventEndDate": "",
    "cfpStartDate": "",
    "cfpEndDate": "",
    "codeOfConduct": "",
    "latitude": 45.2671352,
    "longitude": 19.8335496,
    "cfpUrl": ""
  },
  {
    "name": "dConstruct",
    "topic": "",
    "url": "",
    "twitter": "",
    "city": "Brighton",
    "stateProvince": "",
    "country": "United Kingdom",
    "eventStartDate": "",
    "eventEndDate": "",
    "cfpStartDate": "",
    "cfpEndDate": "",
    "codeOfConduct": "",
    "latitude": 50.82253000000001,
    "longitude": -0.137163,
    "cfpUrl": ""
  },
  {
    "name": "De:Code",
    "topic": "",
    "url": "",
    "twitter": "",
    "city": "Tokyo",
    "stateProvince": "",
    "country": "Japan",
    "eventStartDate": "",
    "eventEndDate": "",
    "cfpStartDate": "",
    "cfpEndDate": "",
    "codeOfConduct": "",
    "latitude": 35.6894875,
    "longitude": 139.6917064,
    "cfpUrl": ""
  },
  {
    "name": "Deeper Life Holiday school",
    "topic": "",
    "url": "",
    "twitter": "",
    "city": "Lagos",
    "stateProvince": "",
    "country": "Nigeria",
    "eventStartDate": "",
    "eventEndDate": "",
    "cfpStartDate": "",
    "cfpEndDate": "",
    "codeOfConduct": "",
    "latitude": 6.5243793,
    "longitude": 3.3792057,
    "cfpUrl": ""
  },
  {
    "name": "DeepSec",
    "topic": "",
    "url": "http://deepsec.net/",
    "twitter": "",
    "city": "Vienna",
    "stateProvince": "",
    "country": "Austria",
    "eventStartDate": "",
    "eventEndDate": "",
    "cfpStartDate": "",
    "cfpEndDate": "",
    "codeOfConduct": "",
    "latitude": 48.2081743,
    "longitude": 16.3738189,
    "cfpUrl": ""
  },
  {
    "name": "DefCamp",
    "topic": "",
    "url": "http://def.camp/",
    "twitter": "",
    "city": "Bucharest",
    "stateProvince": "",
    "country": "Romania",
    "eventStartDate": "",
    "eventEndDate": "",
    "cfpStartDate": "",
    "cfpEndDate": "",
    "codeOfConduct": "",
    "latitude": 44.4267674,
    "longitude": 26.1025384,
    "cfpUrl": ""
  },
  {
    "name": "Denver Dev Day",
    "topic": "",
    "url": "",
    "twitter": "",
    "city": "Denver",
    "stateProvince": "CO",
    "country": "United States",
    "eventStartDate": "",
    "eventEndDate": "",
    "cfpStartDate": "",
    "cfpEndDate": "",
    "codeOfConduct": "",
    "latitude": 39.7392358,
    "longitude": -104.990251,
    "cfpUrl": ""
  },
  {
    "name": "DeSymfony",
    "topic": "",
    "url": "",
    "twitter": "",
    "city": "Madrid",
    "stateProvince": "",
    "country": "Spain",
    "eventStartDate": "",
    "eventEndDate": "",
    "cfpStartDate": "",
    "cfpEndDate": "",
    "codeOfConduct": "",
    "latitude": 40.4167754,
    "longitude": -3.7037902,
    "cfpUrl": ""
  },
  {
    "name": "DevConnections",
    "topic": "",
    "url": "",
    "twitter": "",
    "city": "Las Vegas",
    "stateProvince": "NV",
    "country": "United States",
    "eventStartDate": "",
    "eventEndDate": "",
    "cfpStartDate": "",
    "cfpEndDate": "",
    "codeOfConduct": "",
    "latitude": 36.1699412,
    "longitude": -115.1398296,
    "cfpUrl": ""
  },
  {
    "name": "DevDay",
    "topic": "",
    "url": "http://www.devday.pl/",
    "twitter": "",
    "city": "Poland",
    "stateProvince": "",
    "country": "Poland",
    "eventStartDate": "",
    "eventEndDate": "",
    "cfpStartDate": "",
    "cfpEndDate": "",
    "codeOfConduct": "",
    "latitude": 51.919438,
    "longitude": 19.145136,
    "cfpUrl": ""
  },
  {
    "name": "DeveloperWeek JavaScript Conference",
    "topic": "",
    "url": "http://www.developerweek.com/javascript-conference/",
    "twitter": "",
    "city": "San Francisco",
    "stateProvince": "CA",
    "country": "United States",
    "eventStartDate": "",
    "eventEndDate": "",
    "cfpStartDate": "",
    "cfpEndDate": "",
    "codeOfConduct": "Yes",
    "latitude": 37.7749295,
    "longitude": -122.4194155,
    "cfpUrl": ""
  },
  {
    "name": "DevExperience.ro",
    "topic": "",
    "url": "http://devexperience.ro/",
    "twitter": "",
    "city": "Iasi",
    "stateProvince": "",
    "country": "Romania",
    "eventStartDate": "",
    "eventEndDate": "",
    "cfpStartDate": "",
    "cfpEndDate": "",
    "codeOfConduct": "",
    "latitude": 47.1584549,
    "longitude": 27.6014418,
    "cfpUrl": ""
  },
  {
    "name": "DevIntersection",
    "topic": "",
    "url": "",
    "twitter": "",
    "city": "",
    "stateProvince": "",
    "country": "",
    "eventStartDate": "",
    "eventEndDate": "",
    "cfpStartDate": "",
    "cfpEndDate": "",
    "codeOfConduct": "",
    "latitude": "",
    "longitude": "",
    "cfpUrl": ""
  },
  {
    "name": "DEVit Web Conference",
    "topic": "",
    "url": "http://devitconf.org/",
    "twitter": "",
    "city": "Thessaloniki",
    "stateProvince": "",
    "country": "Greece",
    "eventStartDate": "",
    "eventEndDate": "",
    "cfpStartDate": "",
    "cfpEndDate": "",
    "codeOfConduct": "Yes",
    "latitude": 40.6400629,
    "longitude": 22.9444191,
    "cfpUrl": ""
  },
  {
    "name": "DevNexus",
    "topic": "",
    "url": "http://devnexus.com/",
    "twitter": "",
    "city": "Atlanta",
    "stateProvince": "GA",
    "country": "United States",
    "eventStartDate": "",
    "eventEndDate": "",
    "cfpStartDate": "",
    "cfpEndDate": "",
    "codeOfConduct": "Yes",
    "latitude": 33.7489954,
    "longitude": -84.3879824,
    "cfpUrl": ""
  },
  {
    "name": "DevopsDays",
    "topic": "",
    "url": "",
    "twitter": "",
    "city": "Minneapolis",
    "stateProvince": "MN",
    "country": "United States",
    "eventStartDate": "",
    "eventEndDate": "",
    "cfpStartDate": "",
    "cfpEndDate": "",
    "codeOfConduct": "",
    "latitude": 44.977753,
    "longitude": -93.2650108,
    "cfpUrl": ""
  },
  {
    "name": "DevopsDays",
    "topic": "",
    "url": "",
    "twitter": "",
    "city": "Chicago",
    "stateProvince": "IL",
    "country": "United States",
    "eventStartDate": "",
    "eventEndDate": "",
    "cfpStartDate": "",
    "cfpEndDate": "",
    "codeOfConduct": "",
    "latitude": 41.8781136,
    "longitude": -87.6297982,
    "cfpUrl": ""
  },
  {
    "name": "Devoxx MA",
    "topic": "",
    "url": "",
    "twitter": "",
    "city": "Casablanca",
    "stateProvince": "",
    "country": "Morocco",
    "eventStartDate": "",
    "eventEndDate": "",
    "cfpStartDate": "",
    "cfpEndDate": "",
    "codeOfConduct": "",
    "latitude": 33.5731104,
    "longitude": -7.589843399999999,
    "cfpUrl": ""
  },
  {
    "name": "Devoxx PL",
    "topic": "",
    "url": "",
    "twitter": "",
    "city": "Krakow",
    "stateProvince": "",
    "country": "Poland",
    "eventStartDate": "",
    "eventEndDate": "",
    "cfpStartDate": "",
    "cfpEndDate": "",
    "codeOfConduct": "",
    "latitude": 50.06465009999999,
    "longitude": 19.9449799,
    "cfpUrl": ""
  },
  {
    "name": "Devoxx UK",
    "topic": "",
    "url": "",
    "twitter": "",
    "city": "London",
    "stateProvince": "",
    "country": "United Kingdom",
    "eventStartDate": "",
    "eventEndDate": "",
    "cfpStartDate": "",
    "cfpEndDate": "",
    "codeOfConduct": "",
    "latitude": 51.5073509,
    "longitude": -0.1277583,
    "cfpUrl": ""
  },
  {
    "name": "Devs Lobe Bacon 2014",
    "topic": "",
    "url": "",
    "twitter": "",
    "city": "London",
    "stateProvince": "",
    "country": "United Kingdom",
    "eventStartDate": "",
    "eventEndDate": "",
    "cfpStartDate": "",
    "cfpEndDate": "",
    "codeOfConduct": "",
    "latitude": 51.5073509,
    "longitude": -0.1277583,
    "cfpUrl": ""
  },
  {
    "name": "DevSum",
    "topic": "",
    "url": "http://www.devsum.se/",
    "twitter": "",
    "city": "Stockholm",
    "stateProvince": "",
    "country": "Sweden",
    "eventStartDate": "",
    "eventEndDate": "",
    "cfpStartDate": "",
    "cfpEndDate": "",
    "codeOfConduct": "Unspecified",
    "latitude": 59.32932349999999,
    "longitude": 18.0685808,
    "cfpUrl": ""
  },
  {
    "name": "DevWeek",
    "topic": "",
    "url": "",
    "twitter": "",
    "city": "London",
    "stateProvince": "",
    "country": "United Kingdom",
    "eventStartDate": "",
    "eventEndDate": "",
    "cfpStartDate": "",
    "cfpEndDate": "",
    "codeOfConduct": "",
    "latitude": 51.5073509,
    "longitude": -0.1277583,
    "cfpUrl": ""
  },
  {
    "name": "DIMVA",
    "topic": "",
    "url": "http://dimva2016.mondragon.edu/en",
    "twitter": "",
    "city": "Bonn",
    "stateProvince": "",
    "country": "Germany",
    "eventStartDate": "",
    "eventEndDate": "",
    "cfpStartDate": "",
    "cfpEndDate": "",
    "codeOfConduct": "",
    "latitude": 50.73743,
    "longitude": 7.0982068,
    "cfpUrl": ""
  },
  {
    "name": "Dinosaurjs",
    "topic": "",
    "url": "http://dinosaurjs.org/",
    "twitter": "",
    "city": "Denver",
    "stateProvince": "CO",
    "country": "United States",
    "eventStartDate": "",
    "eventEndDate": "",
    "cfpStartDate": "",
    "cfpEndDate": "",
    "codeOfConduct": "Yes",
    "latitude": 39.7392358,
    "longitude": -104.990251,
    "cfpUrl": ""
  },
  {
    "name": "Distill 2014",
    "topic": "",
    "url": "",
    "twitter": "",
    "city": "San Francisco",
    "stateProvince": "CA",
    "country": "United States",
    "eventStartDate": "",
    "eventEndDate": "",
    "cfpStartDate": "",
    "cfpEndDate": "",
    "codeOfConduct": "",
    "latitude": 37.7749295,
    "longitude": -122.4194155,
    "cfpUrl": ""
  },
  {
    "name": "DjangoCon",
    "topic": "",
    "url": "",
    "twitter": "",
    "city": "Cardiff",
    "stateProvince": "Wales",
    "country": "United Kingdom",
    "eventStartDate": "",
    "eventEndDate": "",
    "cfpStartDate": "",
    "cfpEndDate": "",
    "codeOfConduct": "",
    "latitude": 51.48158100000001,
    "longitude": -3.17909,
    "cfpUrl": ""
  },
  {
    "name": "DjangoCon Europe",
    "topic": "",
    "url": "",
    "twitter": "",
    "city": "Cardiff",
    "stateProvince": "Wales",
    "country": "United Kingdom",
    "eventStartDate": "",
    "eventEndDate": "",
    "cfpStartDate": "",
    "cfpEndDate": "",
    "codeOfConduct": "",
    "latitude": 51.48158100000001,
    "longitude": -3.17909,
    "cfpUrl": ""
  },
  {
    "name": "dotCSS",
    "topic": "web platform",
    "url": "http://www.dotcss.io/",
    "twitter": "",
    "city": "Paris",
    "stateProvince": "",
    "country": "France",
    "eventStartDate": "",
    "eventEndDate": "",
    "cfpStartDate": "",
    "cfpEndDate": "",
    "codeOfConduct": "",
    "latitude": 48.856614,
    "longitude": 2.3522219,
    "cfpUrl": ""
  },
  {
    "name": "dotJS",
    "topic": "web platform",
    "url": "http://www.dotjs.io/",
    "twitter": "@dotJS",
    "city": "Paris",
    "stateProvince": "",
    "country": "France",
    "eventStartDate": "",
    "eventEndDate": "",
    "cfpStartDate": "",
    "cfpEndDate": "",
    "codeOfConduct": "",
    "latitude": 48.856614,
    "longitude": 2.3522219,
    "cfpUrl": ""
  },
  {
    "name": "Droidcon Stockholm",
    "topic": "mobile",
    "url": "http://droidcon.com/",
    "twitter": "",
    "city": "Stockholm",
    "stateProvince": "",
    "country": "Sweden",
    "eventStartDate": "",
    "eventEndDate": "",
    "cfpStartDate": "",
    "cfpEndDate": "",
    "codeOfConduct": "",
    "latitude": 59.32932349999999,
    "longitude": 18.0685808,
    "cfpUrl": ""
  },
  {
    "name": "DrupalCamp",
    "topic": "",
    "url": "",
    "twitter": "",
    "city": "Edinburgh",
    "stateProvince": "",
    "country": "Scotland",
    "eventStartDate": "",
    "eventEndDate": "",
    "cfpStartDate": "",
    "cfpEndDate": "",
    "codeOfConduct": "",
    "latitude": 55.953252,
    "longitude": -3.188267,
    "cfpUrl": ""
  },
  {
    "name": "DrupalCon",
    "topic": "",
    "url": "",
    "twitter": "",
    "city": "Prague",
    "stateProvince": "",
    "country": "Czech Republic",
    "eventStartDate": "",
    "eventEndDate": "",
    "cfpStartDate": "",
    "cfpEndDate": "",
    "codeOfConduct": "",
    "latitude": 50.0755381,
    "longitude": 14.4378005,
    "cfpUrl": ""
  },
  {
    "name": "DrupalCon",
    "topic": "",
    "url": "",
    "twitter": "",
    "city": "Long Beach",
    "stateProvince": "CA",
    "country": "United States",
    "eventStartDate": "",
    "eventEndDate": "",
    "cfpStartDate": "",
    "cfpEndDate": "",
    "codeOfConduct": "",
    "latitude": 33.7700504,
    "longitude": -118.1937395,
    "cfpUrl": ""
  },
  {
    "name": "Dutch PHP Conference",
    "topic": "",
    "url": "",
    "twitter": "",
    "city": "Amsterdam",
    "stateProvince": "",
    "country": "The Netherlands",
    "eventStartDate": "",
    "eventEndDate": "",
    "cfpStartDate": "",
    "cfpEndDate": "",
    "codeOfConduct": "",
    "latitude": 52.3702157,
    "longitude": 4.895167900000001,
    "cfpUrl": ""
  },
  {
    "name": "e-SAME - CTF on Nov 30",
    "topic": "",
    "url": "http://www.esame-conference.org/",
    "twitter": "",
    "city": "Sophia Antipolis",
    "stateProvince": "",
    "country": "France",
    "eventStartDate": "",
    "eventEndDate": "",
    "cfpStartDate": "",
    "cfpEndDate": "",
    "codeOfConduct": "",
    "latitude": 43.6163539,
    "longitude": 7.0552218,
    "cfpUrl": ""
  },
  {
    "name": "EclipseCon",
    "topic": "",
    "url": "",
    "twitter": "",
    "city": "San Francisco",
    "stateProvince": "CA",
    "country": "United States",
    "eventStartDate": "",
    "eventEndDate": "",
    "cfpStartDate": "",
    "cfpEndDate": "",
    "codeOfConduct": "",
    "latitude": 37.7749295,
    "longitude": -122.4194155,
    "cfpUrl": ""
  },
  {
    "name": "eCrime",
    "topic": "",
    "url": "http://apwg.org/apwg-events/ecrime2017/",
    "twitter": "",
    "city": "Scottdale",
    "stateProvince": "AZ",
    "country": "United States",
    "eventStartDate": "",
    "eventEndDate": "",
    "cfpStartDate": "",
    "cfpEndDate": "",
    "codeOfConduct": "",
    "latitude": 33.4941704,
    "longitude": -111.9260519,
    "cfpUrl": ""
  },
  {
    "name": "EdgeConf",
    "topic": "",
    "url": "",
    "twitter": "",
    "city": "London",
    "stateProvince": "",
    "country": "United Kingdom",
    "eventStartDate": "",
    "eventEndDate": "",
    "cfpStartDate": "",
    "cfpEndDate": "",
    "codeOfConduct": "",
    "latitude": 51.5073509,
    "longitude": -0.1277583,
    "cfpUrl": ""
  },
  {
    "name": "EICAR",
    "topic": "",
    "url": "http://www.eicar.org/17-0-General-Info.html",
    "twitter": "",
    "city": "",
    "stateProvince": "",
    "country": "",
    "eventStartDate": "",
    "eventEndDate": "",
    "cfpStartDate": "",
    "cfpEndDate": "",
    "codeOfConduct": "",
    "latitude": "",
    "longitude": "",
    "cfpUrl": ""
  },
  {
    "name": "Elements Penn State",
    "topic": "",
    "url": "https://elements.psu.edu/",
    "twitter": "",
    "city": "State College",
    "stateProvince": "PA",
    "country": "United States",
    "eventStartDate": "",
    "eventEndDate": "",
    "cfpStartDate": "",
    "cfpEndDate": "",
    "codeOfConduct": "",
    "latitude": 40.7933949,
    "longitude": -77.8600012,
    "cfpUrl": ""
  },
  {
    "name": "EmberFest",
    "topic": "",
    "url": "http://emberfest.eu/",
    "twitter": "",
    "city": "Berlin",
    "stateProvince": "",
    "country": "Germany",
    "eventStartDate": "",
    "eventEndDate": "",
    "cfpStartDate": "",
    "cfpEndDate": "",
    "codeOfConduct": "Yes",
    "latitude": 52.52000659999999,
    "longitude": 13.404954,
    "cfpUrl": ""
  },
  {
    "name": "Empire Conf",
    "topic": "",
    "url": "http://2017.empireconf.org/",
    "twitter": "",
    "city": "New York",
    "stateProvince": "NY",
    "country": "United States",
    "eventStartDate": "",
    "eventEndDate": "",
    "cfpStartDate": "",
    "cfpEndDate": "",
    "codeOfConduct": "",
    "latitude": 40.7127837,
    "longitude": -74.0059413,
    "cfpUrl": ""
  },
  {
    "name": "EmpireNode",
    "topic": "",
    "url": "",
    "twitter": "",
    "city": "New York",
    "stateProvince": "NY",
    "country": "United States",
    "eventStartDate": "",
    "eventEndDate": "",
    "cfpStartDate": "",
    "cfpEndDate": "",
    "codeOfConduct": "",
    "latitude": 40.7127837,
    "longitude": -74.0059413,
    "cfpUrl": ""
  },
  {
    "name": "ENIGMA",
    "topic": "",
    "url": "http://www.usenix.org/conference/enigma2017",
    "twitter": "",
    "city": "Oakland",
    "stateProvince": "CA",
    "country": "United States",
    "eventStartDate": "",
    "eventEndDate": "",
    "cfpStartDate": "",
    "cfpEndDate": "",
    "codeOfConduct": "",
    "latitude": 37.8043637,
    "longitude": -122.2711137,
    "cfpUrl": ""
  },
  {
    "name": "EnterJS",
    "topic": "",
    "url": "http://www.enterjs.de/",
    "twitter": "",
    "city": "Darmstadt",
    "stateProvince": "",
    "country": "Germany",
    "eventStartDate": "",
    "eventEndDate": "",
    "cfpStartDate": "",
    "cfpEndDate": "",
    "codeOfConduct": "",
    "latitude": 49.8728253,
    "longitude": 8.6511929,
    "cfpUrl": ""
  },
  {
    "name": "Epic FEL",
    "topic": "",
    "url": "",
    "twitter": "",
    "city": "London",
    "stateProvince": "",
    "country": "United Kingdom",
    "eventStartDate": "",
    "eventEndDate": "",
    "cfpStartDate": "",
    "cfpEndDate": "",
    "codeOfConduct": "",
    "latitude": 51.5073509,
    "longitude": -0.1277583,
    "cfpUrl": ""
  },
  {
    "name": "ESORICS",
    "topic": "",
    "url": "http://www.ntnu.edu/esorics2017",
    "twitter": "",
    "city": "Oslo",
    "stateProvince": "",
    "country": "Norway",
    "eventStartDate": "",
    "eventEndDate": "",
    "cfpStartDate": "",
    "cfpEndDate": "",
    "codeOfConduct": "",
    "latitude": 59.9138688,
    "longitude": 10.7522454,
    "cfpUrl": ""
  },
  {
    "name": "Eurocrypt",
    "topic": "",
    "url": "http://eurocrypt2017.di.ens.fr/",
    "twitter": "",
    "city": "Paris",
    "stateProvince": "",
    "country": "France",
    "eventStartDate": "",
    "eventEndDate": "",
    "cfpStartDate": "",
    "cfpEndDate": "",
    "codeOfConduct": "",
    "latitude": 48.856614,
    "longitude": 2.3522219,
    "cfpUrl": ""
  },
  {
    "name": "EuRuKo",
    "topic": "",
    "url": "",
    "twitter": "",
    "city": "Salzburg",
    "stateProvince": "",
    "country": "Austria",
    "eventStartDate": "",
    "eventEndDate": "",
    "cfpStartDate": "",
    "cfpEndDate": "",
    "codeOfConduct": "",
    "latitude": 47.80949,
    "longitude": 13.05501,
    "cfpUrl": ""
  },
  {
    "name": "F5 Festival",
    "topic": "",
    "url": "",
    "twitter": "",
    "city": "",
    "stateProvince": "",
    "country": "",
    "eventStartDate": "",
    "eventEndDate": "",
    "cfpStartDate": "",
    "cfpEndDate": "",
    "codeOfConduct": "",
    "latitude": "",
    "longitude": "",
    "cfpUrl": ""
  },
  {
    "name": "Falsy Values",
    "topic": "",
    "url": "",
    "twitter": "",
    "city": "Warsaw",
    "stateProvince": "",
    "country": "Poland",
    "eventStartDate": "",
    "eventEndDate": "",
    "cfpStartDate": "",
    "cfpEndDate": "",
    "codeOfConduct": "",
    "latitude": 52.2296756,
    "longitude": 21.0122287,
    "cfpUrl": ""
  },
  {
    "name": "ffconf",
    "topic": "",
    "url": "http://ffconf.org/",
    "twitter": "",
    "city": "Brighton",
    "stateProvince": "",
    "country": "United Kingdom",
    "eventStartDate": "",
    "eventEndDate": "",
    "cfpStartDate": "",
    "cfpEndDate": "",
    "codeOfConduct": "Yes",
    "latitude": 50.82253000000001,
    "longitude": -0.137163,
    "cfpUrl": ""
  },
  {
    "name": "FIRSTFare",
    "topic": "",
    "url": "",
    "twitter": "",
    "city": "Portland",
    "stateProvince": "OR",
    "country": "United States",
    "eventStartDate": "",
    "eventEndDate": "",
    "cfpStartDate": "",
    "cfpEndDate": "",
    "codeOfConduct": "",
    "latitude": 45.5230622,
    "longitude": -122.6764815,
    "cfpUrl": ""
  },
  {
    "name": "FITC",
    "topic": "",
    "url": "",
    "twitter": "",
    "city": "Toronto",
    "stateProvince": "",
    "country": "Canada",
    "eventStartDate": "",
    "eventEndDate": "",
    "cfpStartDate": "",
    "cfpEndDate": "",
    "codeOfConduct": "",
    "latitude": 43.653226,
    "longitude": -79.3831843,
    "cfpUrl": ""
  },
  {
    "name": "Form Function & Class 8",
    "topic": "",
    "url": "http://2017.formfunctionclass.com/",
    "twitter": "",
    "city": "Manila",
    "stateProvince": "",
    "country": "Philippines",
    "eventStartDate": "",
    "eventEndDate": "",
    "cfpStartDate": "",
    "cfpEndDate": "",
    "codeOfConduct": "",
    "latitude": 14.5995124,
    "longitude": 120.9842195,
    "cfpUrl": ""
  },
  {
    "name": "Forward JS",
    "topic": "",
    "url": "http://forwardjs.com/",
    "twitter": "",
    "city": "San Francisco",
    "stateProvince": "CA",
    "country": "United States",
    "eventStartDate": "",
    "eventEndDate": "",
    "cfpStartDate": "",
    "cfpEndDate": "",
    "codeOfConduct": "Yes",
    "latitude": 37.7749295,
    "longitude": -122.4194155,
    "cfpUrl": ""
  },
  {
    "name": "Forward Swift",
    "topic": "",
    "url": "http://forwardswift.com/",
    "twitter": "",
    "city": "San Francisco",
    "stateProvince": "CA",
    "country": "United States",
    "eventStartDate": "",
    "eventEndDate": "",
    "cfpStartDate": "",
    "cfpEndDate": "",
    "codeOfConduct": "",
    "latitude": 37.7749295,
    "longitude": -122.4194155,
    "cfpUrl": ""
  },
  {
    "name": "ForwardJS",
    "topic": "",
    "url": "",
    "twitter": "",
    "city": "San Francisco",
    "stateProvince": "CA",
    "country": "United States",
    "eventStartDate": "",
    "eventEndDate": "",
    "cfpStartDate": "",
    "cfpEndDate": "",
    "codeOfConduct": "",
    "latitude": 37.7749295,
    "longitude": -122.4194155,
    "cfpUrl": ""
  },
  {
    "name": "FOWD",
    "topic": "",
    "url": "",
    "twitter": "",
    "city": "",
    "stateProvince": "",
    "country": "",
    "eventStartDate": "",
    "eventEndDate": "",
    "cfpStartDate": "",
    "cfpEndDate": "",
    "codeOfConduct": "",
    "latitude": "",
    "longitude": "",
    "cfpUrl": ""
  },
  {
    "name": "FrenchKit",
    "topic": "",
    "url": "http://frenchkit.fr/",
    "twitter": "",
    "city": "Paris",
    "stateProvince": "",
    "country": "France",
    "eventStartDate": "",
    "eventEndDate": "",
    "cfpStartDate": "",
    "cfpEndDate": "",
    "codeOfConduct": "",
    "latitude": 48.856614,
    "longitude": 2.3522219,
    "cfpUrl": ""
  },
  {
    "name": "Front End Design Conference",
    "topic": "",
    "url": "http://frontenddesignconference.com/",
    "twitter": "",
    "city": "St.Petersburg",
    "stateProvince": "FL",
    "country": "United States",
    "eventStartDate": "",
    "eventEndDate": "",
    "cfpStartDate": "",
    "cfpEndDate": "",
    "codeOfConduct": "Yes",
    "latitude": 27.7518284,
    "longitude": -82.6267345,
    "cfpUrl": ""
  },
  {
    "name": "Front in BH",
    "topic": "Front end Development",
    "url": "https://frontinbh.com.br/",
    "twitter": "https://twitter.com/frontinbh",
    "city": "Belo Horizonte",
    "stateProvince": "Minas Gerais",
    "country": "Brazil",
    "eventStartDate": null,
    "eventEndDate": null,
    "cfpStartDate": "",
    "cfpEndDate": "",
    "codeOfConduct": "",
    "latitude": -19.9079062,
    "longitude": -43.9437472,
    "cfpUrl": ""
  },
  {
    "name": "Front Trends",
    "topic": "",
    "url": "",
    "twitter": "",
    "city": "Warsaw",
    "stateProvince": "",
    "country": "Poland",
    "eventStartDate": "",
    "eventEndDate": "",
    "cfpStartDate": "",
    "cfpEndDate": "",
    "codeOfConduct": "",
    "latitude": 52.2296756,
    "longitude": 21.0122287,
    "cfpUrl": ""
  },
  {
    "name": "front-end conference",
    "topic": "",
    "url": "",
    "twitter": "",
    "city": "Zurich",
    "stateProvince": "",
    "country": "Switzerland",
    "eventStartDate": "",
    "eventEndDate": "",
    "cfpStartDate": "",
    "cfpEndDate": "",
    "codeOfConduct": "",
    "latitude": 47.3768866,
    "longitude": 8.541694,
    "cfpUrl": ""
  },
  {
    "name": "FRONTEND CON 2017",
    "topic": "",
    "url": "http://frontend-con.io/",
    "twitter": "",
    "city": "Warsaw",
    "stateProvince": "",
    "country": "Poland",
    "eventStartDate": "",
    "eventEndDate": "",
    "cfpStartDate": "",
    "cfpEndDate": "",
    "codeOfConduct": "",
    "latitude": 52.2296756,
    "longitude": 21.0122287,
    "cfpUrl": ""
  },
  {
    "name": "Frontend Conference Zurich",
    "topic": "",
    "url": "http://frontendconf.ch/",
    "twitter": "",
    "city": "Zurich",
    "stateProvince": "",
    "country": "Switzerland",
    "eventStartDate": "",
    "eventEndDate": "",
    "cfpStartDate": "",
    "cfpEndDate": "",
    "codeOfConduct": "Yes",
    "latitude": 47.3768866,
    "longitude": 8.541694,
    "cfpUrl": ""
  },
  {
    "name": "Frontend Dev Conf 2017",
    "topic": "",
    "url": "http://fdconf.by/",
    "twitter": "",
    "city": "Minsk",
    "stateProvince": "",
    "country": "Belarus",
    "eventStartDate": "",
    "eventEndDate": "",
    "cfpStartDate": "",
    "cfpEndDate": "",
    "codeOfConduct": "",
    "latitude": 53.90453979999999,
    "longitude": 27.5615244,
    "cfpUrl": ""
  },
  {
    "name": "Frontend United",
    "topic": "",
    "url": "http://frontendunited.org/",
    "twitter": "",
    "city": "Athens",
    "stateProvince": "",
    "country": "Greece",
    "eventStartDate": "",
    "eventEndDate": "",
    "cfpStartDate": "",
    "cfpEndDate": "",
    "codeOfConduct": "Yes",
    "latitude": 37.9838096,
    "longitude": 23.7275388,
    "cfpUrl": ""
  },
  {
    "name": "Frontenders",
    "topic": "",
    "url": "",
    "twitter": "",
    "city": "Valencia",
    "stateProvince": "",
    "country": "Spain",
    "eventStartDate": "",
    "eventEndDate": "",
    "cfpStartDate": "",
    "cfpEndDate": "",
    "codeOfConduct": "",
    "latitude": 39.4699075,
    "longitude": -0.3762881,
    "cfpUrl": ""
  },
  {
    "name": "FrontFest",
    "topic": "",
    "url": "http://frontfest.es/",
    "twitter": "",
    "city": "Madrid",
    "stateProvince": "",
    "country": "Spain",
    "eventStartDate": "",
    "eventEndDate": "",
    "cfpStartDate": "",
    "cfpEndDate": "",
    "codeOfConduct": "",
    "latitude": 40.4167754,
    "longitude": -3.7037902,
    "cfpUrl": ""
  },
  {
    "name": "FrontTalks",
    "topic": "",
    "url": "http://fronttalks.ru/",
    "twitter": "",
    "city": "Ekaterinburg",
    "stateProvince": "",
    "country": "Russia",
    "eventStartDate": "",
    "eventEndDate": "",
    "cfpStartDate": "",
    "cfpEndDate": "",
    "codeOfConduct": "",
    "latitude": 56.83892609999999,
    "longitude": 60.6057025,
    "cfpUrl": ""
  },
  {
    "name": "Full Stack Conf",
    "topic": "",
    "url": "",
    "twitter": "",
    "city": "Barcelona",
    "stateProvince": "",
    "country": "Spain",
    "eventStartDate": "",
    "eventEndDate": "",
    "cfpStartDate": "",
    "cfpEndDate": "",
    "codeOfConduct": "",
    "latitude": 41.3850639,
    "longitude": 2.1734035,
    "cfpUrl": ""
  },
  {
    "name": "Full Stack Conf",
    "topic": "",
    "url": "",
    "twitter": "",
    "city": "London",
    "stateProvince": "",
    "country": "United Kingdom",
    "eventStartDate": "",
    "eventEndDate": "",
    "cfpStartDate": "",
    "cfpEndDate": "",
    "codeOfConduct": "",
    "latitude": 51.5073509,
    "longitude": -0.1277583,
    "cfpUrl": ""
  },
  {
    "name": "Full Stack Fest",
    "topic": "",
    "url": "http://fullstackfest.com/",
    "twitter": "",
    "city": "Barcelona",
    "stateProvince": "",
    "country": "Spain",
    "eventStartDate": "",
    "eventEndDate": "",
    "cfpStartDate": "",
    "cfpEndDate": "",
    "codeOfConduct": "Yes",
    "latitude": 41.3850639,
    "longitude": 2.1734035,
    "cfpUrl": ""
  },
  {
    "name": "Full Stack Toronto",
    "topic": "",
    "url": "http://fsto.co/",
    "twitter": "",
    "city": "Toronto",
    "stateProvince": "ON",
    "country": "Canada",
    "eventStartDate": "",
    "eventEndDate": "",
    "cfpStartDate": "",
    "cfpEndDate": "",
    "codeOfConduct": "Yes",
    "latitude": 43.653226,
    "longitude": -79.3831843,
    "cfpUrl": ""
  },
  {
    "name": "Functional Conf India",
    "topic": "",
    "url": "",
    "twitter": "",
    "city": "Bangalore",
    "stateProvince": "",
    "country": "India",
    "eventStartDate": "",
    "eventEndDate": "",
    "cfpStartDate": "",
    "cfpEndDate": "",
    "codeOfConduct": "",
    "latitude": 12.9715987,
    "longitude": 77.5945627,
    "cfpUrl": ""
  },
  {
    "name": "Functional Swift Conference 2017",
    "topic": "",
    "url": "http://2017.funswiftconf.com/",
    "twitter": "",
    "city": "Brooklyn",
    "stateProvince": "NY",
    "country": "United States",
    "eventStartDate": "",
    "eventEndDate": "",
    "cfpStartDate": "",
    "cfpEndDate": "",
    "codeOfConduct": "",
    "latitude": 40.6781784,
    "longitude": -73.9441579,
    "cfpUrl": ""
  },
  {
    "name": "Functions17",
    "topic": "",
    "url": "http://www.eventbrite.com/e/functions17-tickets-35394300305",
    "twitter": "",
    "city": "Toronto",
    "stateProvince": "ON",
    "country": "Canada",
    "eventStartDate": "",
    "eventEndDate": "",
    "cfpStartDate": "",
    "cfpEndDate": "",
    "codeOfConduct": "",
    "latitude": 43.653226,
    "longitude": -79.3831843,
    "cfpUrl": ""
  },
  {
    "name": "Future of Web Apps",
    "topic": "",
    "url": "",
    "twitter": "",
    "city": "Boston",
    "stateProvince": "MA",
    "country": "United States",
    "eventStartDate": "",
    "eventEndDate": "",
    "cfpStartDate": "",
    "cfpEndDate": "",
    "codeOfConduct": "",
    "latitude": 42.3600825,
    "longitude": -71.0588801,
    "cfpUrl": ""
  },
  {
    "name": "Future of Web Design",
    "topic": "",
    "url": "",
    "twitter": "",
    "city": "London",
    "stateProvince": "",
    "country": "United Kingdom",
    "eventStartDate": "",
    "eventEndDate": "",
    "cfpStartDate": "",
    "cfpEndDate": "",
    "codeOfConduct": "",
    "latitude": 51.5073509,
    "longitude": -0.1277583,
    "cfpUrl": ""
  },
  {
    "name": "GDC",
    "topic": "",
    "url": "",
    "twitter": "",
    "city": "San Francisco",
    "stateProvince": "CA",
    "country": "United States",
    "eventStartDate": "",
    "eventEndDate": "",
    "cfpStartDate": "",
    "cfpEndDate": "",
    "codeOfConduct": "",
    "latitude": 37.7749295,
    "longitude": -122.4194155,
    "cfpUrl": ""
  },
  {
    "name": "GDC",
    "topic": "",
    "url": "",
    "twitter": "",
    "city": "Shanghai",
    "stateProvince": "",
    "country": "China",
    "eventStartDate": "",
    "eventEndDate": "",
    "cfpStartDate": "",
    "cfpEndDate": "",
    "codeOfConduct": "",
    "latitude": 31.2303904,
    "longitude": 121.4737021,
    "cfpUrl": ""
  },
  {
    "name": "GDC China",
    "topic": "",
    "url": "",
    "twitter": "",
    "city": "Beijing",
    "stateProvince": "",
    "country": "China",
    "eventStartDate": "",
    "eventEndDate": "",
    "cfpStartDate": "",
    "cfpEndDate": "",
    "codeOfConduct": "",
    "latitude": 39.90419989999999,
    "longitude": 116.4073963,
    "cfpUrl": ""
  },
  {
    "name": "GeekGirlCamp",
    "topic": "programming",
    "url": "http://geekgirltechcon.com/",
    "twitter": "geekgirlcamp",
    "city": "Charlotte",
    "stateProvince": "VA",
    "country": "United States",
    "eventStartDate": null,
    "eventEndDate": "",
    "cfpStartDate": "",
    "cfpEndDate": "",
    "codeOfConduct": "",
    "latitude": 38.0293059,
    "longitude": -78.47667810000002,
    "cfpUrl": ""
  },
  {
    "name": "GIDS",
    "topic": "",
    "url": "",
    "twitter": "",
    "city": "Bangalore",
    "stateProvince": "",
    "country": "India",
    "eventStartDate": "",
    "eventEndDate": "",
    "cfpStartDate": "",
    "cfpEndDate": "",
    "codeOfConduct": "",
    "latitude": 12.9715987,
    "longitude": 77.5945627,
    "cfpUrl": ""
  },
  {
    "name": "Global Innovation Forum",
    "topic": "",
    "url": "",
    "twitter": "",
    "city": "London",
    "stateProvince": "",
    "country": "United Kingdom",
    "eventStartDate": "",
    "eventEndDate": "",
    "cfpStartDate": "",
    "cfpEndDate": "",
    "codeOfConduct": "",
    "latitude": 51.5073509,
    "longitude": -0.1277583,
    "cfpUrl": ""
  },
  {
    "name": "Goto",
    "topic": "",
    "url": "",
    "twitter": "",
    "city": "Copenhagen",
    "stateProvince": "",
    "country": "Denmark",
    "eventStartDate": "",
    "eventEndDate": "",
    "cfpStartDate": "",
    "cfpEndDate": "",
    "codeOfConduct": "",
    "latitude": 55.6760968,
    "longitude": 12.5683372,
    "cfpUrl": ""
  },
  {
    "name": "GreHack",
    "url": "http://grehack.fr/2017/cfp",
    "twitter": "",
    "city": "Grenoble",
    "stateProvince": "",
    "country": "France",
    "eventStartDate": "",
    "eventEndDate": "",
    "cfpStartDate": "",
    "cfpEndDate": "",
    "codeOfConduct": "",
    "latitude": 45.188529,
    "longitude": 5.724524,
    "cfpUrl": ""
  },
  {
    "name": "GrrCON",
    "topic": "",
    "url": "http://grrcon.com/",
    "twitter": "",
    "city": "Grand Rapids",
    "stateProvince": "MI",
    "country": "United States",
    "eventStartDate": "",
    "eventEndDate": "",
    "cfpStartDate": "",
    "cfpEndDate": "",
    "codeOfConduct": "",
    "latitude": 42.9633599,
    "longitude": -85.6680863,
    "cfpUrl": ""
  },
  {
    "name": "Hack in Paris",
    "topic": "",
    "url": "http://hackinparis.com/",
    "twitter": "",
    "city": "Paris",
    "stateProvince": "",
    "country": "France",
    "eventStartDate": "",
    "eventEndDate": "",
    "cfpStartDate": "",
    "cfpEndDate": "",
    "codeOfConduct": "",
    "latitude": 48.856614,
    "longitude": 2.3522219,
    "cfpUrl": ""
  },
  {
    "name": "Hack in the box",
    "topic": "",
    "url": "http://conference.hitb.org/",
    "twitter": "",
    "city": "Amsterdam",
    "stateProvince": "",
    "country": "The Netherlands",
    "eventStartDate": "",
    "eventEndDate": "",
    "cfpStartDate": "",
    "cfpEndDate": "",
    "codeOfConduct": "",
    "latitude": 52.3702157,
    "longitude": 4.895167900000001,
    "cfpUrl": ""
  },
  {
    "name": "Hack.lu",
    "topic": "",
    "url": "http://2017.hack.lu/",
    "twitter": "",
    "city": "Luxemburg",
    "stateProvince": "",
    "country": "Luxemburg",
    "eventStartDate": "",
    "eventEndDate": "",
    "cfpStartDate": "",
    "cfpEndDate": "",
    "codeOfConduct": "",
    "latitude": 49.61162100000001,
    "longitude": 6.1319346,
    "cfpUrl": ""
  },
  {
    "name": "Hackfest",
    "topic": "",
    "url": "http://hackfest.ca/",
    "twitter": "",
    "city": "Montreal",
    "stateProvince": "QC",
    "country": "Canada",
    "eventStartDate": "",
    "eventEndDate": "",
    "cfpStartDate": "",
    "cfpEndDate": "",
    "codeOfConduct": "",
    "latitude": 45.5016889,
    "longitude": -73.567256,
    "cfpUrl": ""
  },
  {
    "name": "Hacktivity",
    "topic": "",
    "url": "http://hacktivity.com/",
    "twitter": "",
    "city": "Budapest",
    "stateProvince": "",
    "country": "Hungary",
    "eventStartDate": "",
    "eventEndDate": "",
    "cfpStartDate": "",
    "cfpEndDate": "",
    "codeOfConduct": "",
    "latitude": 47.497912,
    "longitude": 19.040235,
    "cfpUrl": ""
  },
  {
    "name": "Hardwear.io",
    "topic": "",
    "url": "http://hardwear.io/",
    "twitter": "",
    "city": "The Hague",
    "stateProvince": "",
    "country": "The Netherlands",
    "eventStartDate": "",
    "eventEndDate": "",
    "cfpStartDate": "",
    "cfpEndDate": "",
    "codeOfConduct": "",
    "latitude": 52.0704978,
    "longitude": 4.3006999,
    "cfpUrl": ""
  },
  {
    "name": "Haskell Symposium",
    "topic": "",
    "url": "",
    "twitter": "",
    "city": "Vancouver",
    "stateProvince": "BC",
    "country": "Canada",
    "eventStartDate": "",
    "eventEndDate": "",
    "cfpStartDate": "",
    "cfpEndDate": "",
    "codeOfConduct": "",
    "latitude": 49.2827291,
    "longitude": -123.1207375,
    "cfpUrl": ""
  },
  {
    "name": "Heartland Dev Conference",
    "topic": "",
    "url": "",
    "twitter": "",
    "city": "Omaha",
    "stateProvince": "NE",
    "country": "United States",
    "eventStartDate": "",
    "eventEndDate": "",
    "cfpStartDate": "",
    "cfpEndDate": "",
    "codeOfConduct": "",
    "latitude": 41.2523634,
    "longitude": -95.99798829999999,
    "cfpUrl": ""
  },
  {
    "name": "HighEd Web",
    "topic": "",
    "url": "",
    "twitter": "",
    "city": "Milwaukee",
    "stateProvince": "WI",
    "country": "United States",
    "eventStartDate": "",
    "eventEndDate": "",
    "cfpStartDate": "",
    "cfpEndDate": "",
    "codeOfConduct": "",
    "latitude": 43.0389025,
    "longitude": -87.9064736,
    "cfpUrl": ""
  },
  {
    "name": "HolyJS",
    "topic": "",
    "url": "http://holyjs-piter.ru/",
    "twitter": "",
    "city": "St. Petersburg",
    "stateProvince": "",
    "country": "Russia",
    "eventStartDate": "",
    "eventEndDate": "",
    "cfpStartDate": "",
    "cfpEndDate": "",
    "codeOfConduct": "",
    "latitude": 59.9342802,
    "longitude": 30.3350986,
    "cfpUrl": ""
  },
  {
    "name": "HolyJS Moscow",
    "topic": "",
    "url": "http://holyjs-moscow.ru/en/",
    "twitter": "",
    "city": "Moscow",
    "stateProvince": "",
    "country": "Russia",
    "eventStartDate": "",
    "eventEndDate": "",
    "cfpStartDate": "",
    "cfpEndDate": "",
    "codeOfConduct": "",
    "latitude": 55.755826,
    "longitude": 37.6172999,
    "cfpUrl": ""
  },
  {
    "name": "How Interactive Design",
    "topic": "",
    "url": "",
    "twitter": "",
    "city": "Chicago",
    "stateProvince": "IL",
    "country": "United States",
    "eventStartDate": "",
    "eventEndDate": "",
    "cfpStartDate": "",
    "cfpEndDate": "",
    "codeOfConduct": "",
    "latitude": 41.8781136,
    "longitude": -87.6297982,
    "cfpUrl": ""
  },
  {
    "name": "HTML5 Dev Conf",
    "topic": "",
    "url": "",
    "twitter": "",
    "city": "San Francisco",
    "stateProvince": "CA",
    "country": "United States",
    "eventStartDate": "",
    "eventEndDate": "",
    "cfpStartDate": "",
    "cfpEndDate": "",
    "codeOfConduct": "",
    "latitude": 37.7749295,
    "longitude": -122.4194155,
    "cfpUrl": ""
  },
  {
    "name": "IEEE S&P",
    "topic": "",
    "url": "http://www.ieee-security.org/TC/SP2017/index.html",
    "twitter": "",
    "city": "San Jose",
    "stateProvince": "CA",
    "country": "United States",
    "eventStartDate": "",
    "eventEndDate": "",
    "cfpStartDate": "",
    "cfpEndDate": "",
    "codeOfConduct": "",
    "latitude": 37.3382082,
    "longitude": -121.8863286,
    "cfpUrl": ""
  },
  {
    "name": "iJS International JavaScript Conference",
    "topic": "",
    "url": "http://javascript-conference.com/",
    "twitter": "",
    "city": "Munich",
    "stateProvince": "",
    "country": "Germany",
    "eventStartDate": "",
    "eventEndDate": "",
    "cfpStartDate": "",
    "cfpEndDate": "",
    "codeOfConduct": "",
    "latitude": 48.1351253,
    "longitude": 11.5819805,
    "cfpUrl": ""
  },
  {
    "name": "Insomni'hack",
    "topic": "",
    "url": "http://insomnihack.ch/",
    "twitter": "",
    "city": "Geneva",
    "stateProvince": "",
    "country": "Switzerland",
    "eventStartDate": "",
    "eventEndDate": "",
    "cfpStartDate": "",
    "cfpEndDate": "",
    "codeOfConduct": "",
    "latitude": 46.2043907,
    "longitude": 6.1431577,
    "cfpUrl": ""
  },
  {
    "name": "iOSCon 2017",
    "topic": "",
    "url": "http://skillsmatter.com/conferences/8180-ioscon-2017-the-conference-for-ios-and-swift-developers",
    "twitter": "",
    "city": "London",
    "stateProvince": "",
    "country": "United Kingdom",
    "eventStartDate": "",
    "eventEndDate": "",
    "cfpStartDate": "",
    "cfpEndDate": "",
    "codeOfConduct": "",
    "latitude": 51.5073509,
    "longitude": -0.1277583,
    "cfpUrl": ""
  },
  {
    "name": "iOSDC Japan 2017",
    "topic": "",
    "url": "http://iosdc.jp/2017/",
    "twitter": "",
    "city": "Tokyo",
    "stateProvince": "",
    "country": "Japan",
    "eventStartDate": "",
    "eventEndDate": "",
    "cfpStartDate": "",
    "cfpEndDate": "",
    "codeOfConduct": "",
    "latitude": 35.6894875,
    "longitude": 139.6917064,
    "cfpUrl": ""
  },
  {
    "name": "iOSDevUk",
    "topic": "",
    "url": "http://www.iosdevuk.com/",
    "twitter": "",
    "city": "Aberystwyth",
    "stateProvince": "Wales",
    "country": "United Kingdom",
    "eventStartDate": "",
    "eventEndDate": "",
    "cfpStartDate": "",
    "cfpEndDate": "",
    "codeOfConduct": "",
    "latitude": 52.41530299999999,
    "longitude": -4.08292,
    "cfpUrl": ""
  },
  {
    "name": "IoT Security Summit",
    "topic": "",
    "url": "http://tmt.knect365.com/iot-security/",
    "twitter": "",
    "city": "Vancouver",
    "stateProvince": "BC",
    "country": "Canada",
    "eventStartDate": "",
    "eventEndDate": "",
    "cfpStartDate": "",
    "cfpEndDate": "",
    "codeOfConduct": "",
    "latitude": 49.2827291,
    "longitude": -123.1207375,
    "cfpUrl": ""
  },
  {
    "name": "It camp Romania",
    "topic": "",
    "url": "",
    "twitter": "",
    "city": "",
    "stateProvince": "",
    "country": "Romania",
    "eventStartDate": "",
    "eventEndDate": "",
    "cfpStartDate": "",
    "cfpEndDate": "",
    "codeOfConduct": "",
    "latitude": 45.943161,
    "longitude": 24.96676,
    "cfpUrl": ""
  },
  {
    "name": "IT Weekend",
    "topic": "",
    "url": "",
    "twitter": "",
    "city": "Dnipropetrovsk",
    "stateProvince": "",
    "country": "Ukraine",
    "eventStartDate": "",
    "eventEndDate": "",
    "cfpStartDate": "",
    "cfpEndDate": "",
    "codeOfConduct": "",
    "latitude": 48.464717,
    "longitude": 35.046183,
    "cfpUrl": ""
  },
  {
    "name": "JavaScript Conference",
    "topic": "",
    "url": "",
    "twitter": "",
    "city": "Austin",
    "stateProvince": "TX",
    "country": "United States",
    "eventStartDate": "",
    "eventEndDate": "",
    "cfpStartDate": "",
    "cfpEndDate": "",
    "codeOfConduct": "",
    "latitude": 30.267153,
    "longitude": -97.7430608,
    "cfpUrl": ""
  },
  {
    "name": "JavaZone",
    "zone": "Europe",
    "topic": "",
    "url": "",
    "twitter": "",
    "city": "Oslo",
    "stateProvince": "",
    "country": "Norway",
    "eventStartDate": "",
    "eventEndDate": "",
    "cfpStartDate": "",
    "cfpEndDate": "",
    "codeOfConduct": "",
    "latitude": 59.9138688,
    "longitude": 10.7522454,
    "cfpUrl": ""
  },
  {
    "name": "Jazoon",
    "topic": "",
    "url": "http://jazoon.com/",
    "twitter": "",
    "city": "Bern",
    "stateProvince": "",
    "country": "Switzerland",
    "eventStartDate": "",
    "eventEndDate": "",
    "cfpStartDate": "",
    "cfpEndDate": "",
    "codeOfConduct": "",
    "latitude": 46.9479739,
    "longitude": 7.4474468,
    "cfpUrl": ""
  },
  {
    "name": "Joy of Coding",
    "topic": "",
    "url": "",
    "twitter": "",
    "city": "Rotterdam",
    "stateProvince": "",
    "country": "The Netherlands",
    "eventStartDate": "",
    "eventEndDate": "",
    "cfpStartDate": "",
    "cfpEndDate": "",
    "codeOfConduct": "",
    "latitude": 51.9244201,
    "longitude": 4.4777326,
    "cfpUrl": ""
  },
  {
    "name": "jQuery Conf",
    "topic": "",
    "url": "",
    "twitter": "",
    "city": "Moscow",
    "stateProvince": "",
    "country": "Russia",
    "eventStartDate": "",
    "eventEndDate": "",
    "cfpStartDate": "",
    "cfpEndDate": "",
    "codeOfConduct": "",
    "latitude": 55.755826,
    "longitude": 37.6172999,
    "cfpUrl": ""
  },
  {
    "name": "jQuery Conf",
    "topic": "",
    "url": "",
    "twitter": "",
    "city": "Chicago",
    "stateProvince": "IL",
    "country": "United States",
    "eventStartDate": "",
    "eventEndDate": "",
    "cfpStartDate": "",
    "cfpEndDate": "",
    "codeOfConduct": "",
    "latitude": 41.8781136,
    "longitude": -87.6297982,
    "cfpUrl": ""
  },
  {
    "name": "jQuery Dev Summit",
    "topic": "",
    "url": "",
    "twitter": "",
    "city": "New York",
    "stateProvince": "NY",
    "country": "United States",
    "eventStartDate": "",
    "eventEndDate": "",
    "cfpStartDate": "",
    "cfpEndDate": "",
    "codeOfConduct": "",
    "latitude": 40.7127837,
    "longitude": -74.0059413,
    "cfpUrl": ""
  },
  {
    "name": "jQueryConf",
    "topic": "",
    "url": "",
    "twitter": "",
    "city": "San Francisco",
    "stateProvince": "CA",
    "country": "United States",
    "eventStartDate": "",
    "eventEndDate": "",
    "cfpStartDate": "",
    "cfpEndDate": "",
    "codeOfConduct": "",
    "latitude": 37.7749295,
    "longitude": -122.4194155,
    "cfpUrl": ""
  },
  {
    "name": "JS fwdays",
    "topic": "",
    "url": "http://frameworksdays.com/event/js-frameworks-day-2017",
    "twitter": "",
    "city": "Kyiv",
    "stateProvince": "",
    "country": "Ukraine",
    "eventStartDate": "",
    "eventEndDate": "",
    "cfpStartDate": "",
    "cfpEndDate": "",
    "codeOfConduct": "",
    "latitude": 50.4501,
    "longitude": 30.5234,
    "cfpUrl": ""
  },
  {
    "name": "JS Heroes",
    "topic": "",
    "url": "http://jsheroes.io/",
    "twitter": "",
    "city": "Cluj-Napoca",
    "stateProvince": "",
    "country": "Romania",
    "eventStartDate": "",
    "eventEndDate": "",
    "cfpStartDate": "",
    "cfpEndDate": "",
    "codeOfConduct": "",
    "latitude": 46.7712101,
    "longitude": 23.6236353,
    "cfpUrl": ""
  },
  {
    "name": "JS Kongress",
    "topic": "",
    "url": "http://js-kongress.de/",
    "twitter": "",
    "city": "Munich",
    "stateProvince": "",
    "country": "Germany",
    "eventStartDate": "",
    "eventEndDate": "",
    "cfpStartDate": "",
    "cfpEndDate": "",
    "codeOfConduct": "Yes",
    "latitude": 48.1351253,
    "longitude": 11.5819805,
    "cfpUrl": ""
  },
  {
    "name": "JS Poland",
    "topic": "",
    "url": "http://js-poland.pl/",
    "twitter": "",
    "city": "Warsaw",
    "stateProvince": "",
    "country": "Poland",
    "eventStartDate": "",
    "eventEndDate": "",
    "cfpStartDate": "",
    "cfpEndDate": "",
    "codeOfConduct": "",
    "latitude": 52.2296756,
    "longitude": 21.0122287,
    "cfpUrl": ""
  },
  {
    "name": "JS Remote Conf",
    "topic": "",
    "url": "http://devchat.tv/conferences/js-remote-conf-2017",
    "twitter": "",
    "city": "Online",
    "stateProvince": "",
    "country": "",
    "eventStartDate": "",
    "eventEndDate": "",
    "cfpStartDate": "",
    "cfpEndDate": "",
    "codeOfConduct": "",
    "latitude": 33.655959,
    "longitude": -111.929279,
    "cfpUrl": ""
  },
  {
    "name": "JSChannel",
    "topic": "",
    "url": "http://2017.jschannel.com/",
    "twitter": "",
    "city": "Bengaluru",
    "stateProvince": "",
    "country": "India",
    "eventStartDate": "",
    "eventEndDate": "",
    "cfpStartDate": "",
    "cfpEndDate": "",
    "codeOfConduct": "",
    "latitude": 12.9715987,
    "longitude": 77.5945627,
    "cfpUrl": ""
  },
  {
    "name": "JSConf Budapest",
    "topic": "",
    "url": "http://jsconfbp.com/",
    "twitter": "",
    "city": "Budapest",
    "stateProvince": "",
    "country": "Hungary",
    "eventStartDate": "",
    "eventEndDate": "",
    "cfpStartDate": "",
    "cfpEndDate": "",
    "codeOfConduct": "Yes",
    "latitude": 47.497912,
    "longitude": 19.040235,
    "cfpUrl": ""
  },
  {
    "name": "JSConf China",
    "topic": "",
    "url": "http://2017.jsconf.cn/en/",
    "twitter": "",
    "city": "Shanghai",
    "stateProvince": "",
    "country": "China",
    "eventStartDate": "",
    "eventEndDate": "",
    "cfpStartDate": "",
    "cfpEndDate": "",
    "codeOfConduct": "Yes",
    "latitude": 31.2303904,
    "longitude": 121.4737021,
    "cfpUrl": ""
  },
  {
    "name": "JSConf Colombia",
    "topic": "",
    "url": "http://jsconf.co/",
    "twitter": "",
    "city": "Medellin",
    "stateProvince": "",
    "country": "Colombia",
    "eventStartDate": "",
    "eventEndDate": "",
    "cfpStartDate": "",
    "cfpEndDate": "",
    "codeOfConduct": "Yes",
    "latitude": 6.244203,
    "longitude": -75.5812119,
    "cfpUrl": ""
  },
  {
    "name": "JSConf EU",
    "topic": "",
    "url": "http://jsconf.eu/",
    "twitter": "",
    "city": "Berlin",
    "stateProvince": "",
    "country": "Germany",
    "eventStartDate": "",
    "eventEndDate": "",
    "cfpStartDate": "",
    "cfpEndDate": "",
    "codeOfConduct": "Yes",
    "latitude": 52.52000659999999,
    "longitude": 13.404954,
    "cfpUrl": ""
  },
  {
    "name": "JSConf US",
    "topic": "",
    "url": "",
    "twitter": "",
    "city": "Amelia Island",
    "stateProvince": "FL",
    "country": "United States",
    "eventStartDate": "",
    "eventEndDate": "",
    "cfpStartDate": "",
    "cfpEndDate": "",
    "codeOfConduct": "",
    "latitude": 30.6265697,
    "longitude": -81.46085599999999,
    "cfpUrl": ""
  },
  {
    "name": "jsconf.be",
    "topic": "",
    "url": "http://www.jsconf.be/en/",
    "twitter": "",
    "city": "Brugg",
    "stateProvince": "",
    "country": "Belgium",
    "eventStartDate": "",
    "eventEndDate": "",
    "cfpStartDate": "",
    "cfpEndDate": "",
    "codeOfConduct": "",
    "latitude": 51.209348,
    "longitude": 3.2246995,
    "cfpUrl": ""
  },
  {
    "name": "JSConfAsia",
    "topic": "",
    "url": "",
    "twitter": "",
    "city": "Singapore",
    "stateProvince": "",
    "country": "Singapore",
    "eventStartDate": "",
    "eventEndDate": "",
    "cfpStartDate": "",
    "cfpEndDate": "",
    "codeOfConduct": "",
    "latitude": 1.352083,
    "longitude": 103.819836,
    "cfpUrl": ""
  },
  {
    "name": "JSConfAU",
    "topic": "",
    "url": "",
    "twitter": "",
    "city": "Melbourne",
    "stateProvince": "",
    "country": "Australia",
    "eventStartDate": "",
    "eventEndDate": "",
    "cfpStartDate": "",
    "cfpEndDate": "",
    "codeOfConduct": "",
    "latitude": -37.8136276,
    "longitude": 144.9630576,
    "cfpUrl": ""
  },
  {
    "name": "JSCONFCo",
    "topic": "",
    "url": "",
    "twitter": "",
    "city": "Medellin",
    "stateProvince": "",
    "country": "Colombia",
    "eventStartDate": "",
    "eventEndDate": "",
    "cfpStartDate": "",
    "cfpEndDate": "",
    "codeOfConduct": "",
    "latitude": 6.244203,
    "longitude": -75.5812119,
    "cfpUrl": ""
  },
  {
    "name": "JSConfUY",
    "topic": "",
    "url": "",
    "twitter": "",
    "city": "Montevideo",
    "stateProvince": "",
    "country": "Uruguay",
    "eventStartDate": "",
    "eventEndDate": "",
    "cfpStartDate": "",
    "cfpEndDate": "",
    "codeOfConduct": "",
    "latitude": -34.9011127,
    "longitude": -56.16453139999999,
    "cfpUrl": ""
  },
  {
    "name": "JSDay Italy",
    "topic": "",
    "url": "http://2017.jsday.it/",
    "twitter": "",
    "city": "Verona",
    "stateProvince": "",
    "country": "Italy",
    "eventStartDate": "",
    "eventEndDate": "",
    "cfpStartDate": "",
    "cfpEndDate": "",
    "codeOfConduct": "",
    "latitude": 45.43838419999999,
    "longitude": 10.9916215,
    "cfpUrl": ""
  },
  {
    "name": "jsfoo",
    "topic": "",
    "url": "http://jsfoo.in/2017/",
    "twitter": "",
    "city": "Bangalore",
    "stateProvince": "",
    "country": "India",
    "eventStartDate": "",
    "eventEndDate": "",
    "cfpStartDate": "",
    "cfpEndDate": "",
    "codeOfConduct": "",
    "latitude": 12.9715987,
    "longitude": 77.5945627,
    "cfpUrl": ""
  },
  {
    "name": "JSinSA",
    "topic": "",
    "url": "http://www.jsinsa.com/",
    "twitter": "",
    "city": "Johannesburg",
    "stateProvince": "",
    "country": "South Africa",
    "eventStartDate": "",
    "eventEndDate": "",
    "cfpStartDate": "",
    "cfpEndDate": "",
    "codeOfConduct": "",
    "latitude": -26.2041028,
    "longitude": 28.0473051,
    "cfpUrl": ""
  },
  {
    "name": "JSUnconf",
    "topic": "",
    "url": "http://jsunconf.eu/",
    "twitter": "",
    "city": "Hamburg",
    "stateProvince": "",
    "country": "Germany",
    "eventStartDate": "",
    "eventEndDate": "",
    "cfpStartDate": "",
    "cfpEndDate": "",
    "codeOfConduct": "Yes",
    "latitude": 53.5510846,
    "longitude": 9.9936819,
    "cfpUrl": ""
  },
  {
    "name": "KalamazooX",
    "topic": "",
    "url": "",
    "twitter": "",
    "city": "Kalamazoo",
    "stateProvince": "MI",
    "country": "United States",
    "eventStartDate": "",
    "eventEndDate": "",
    "cfpStartDate": "",
    "cfpEndDate": "",
    "codeOfConduct": "",
    "latitude": 42.2917069,
    "longitude": -85.5872286,
    "cfpUrl": ""
  },
  {
    "name": "Kiwicon",
    "topic": "",
    "url": "http://www.kiwicon.org/",
    "twitter": "",
    "city": "Wellington",
    "stateProvince": "",
    "country": "New Zealand",
    "eventStartDate": "",
    "eventEndDate": "",
    "cfpStartDate": "",
    "cfpEndDate": "",
    "codeOfConduct": "",
    "latitude": -41.2864603,
    "longitude": 174.776236,
    "cfpUrl": ""
  },
  {
    "name": "KiwiParty",
    "topic": "",
    "url": "",
    "twitter": "",
    "city": "Strasbourg",
    "stateProvince": "",
    "country": "France",
    "eventStartDate": "",
    "eventEndDate": "",
    "cfpStartDate": "",
    "cfpEndDate": "",
    "codeOfConduct": "",
    "latitude": 48.5734053,
    "longitude": 7.752111299999999,
    "cfpUrl": ""
  },
  {
    "name": "La nuit du hack",
    "topic": "",
    "url": "http://www.nuitduhack.com/en/",
    "twitter": "",
    "city": "Paris",
    "stateProvince": "",
    "country": "France",
    "eventStartDate": "",
    "eventEndDate": "",
    "cfpStartDate": "",
    "cfpEndDate": "",
    "codeOfConduct": "",
    "latitude": 48.856614,
    "longitude": 2.3522219,
    "cfpUrl": ""
  },
  {
    "name": "LA RubyConf",
    "topic": "",
    "url": "",
    "twitter": "",
    "city": "Long Beach",
    "stateProvince": "CA",
    "country": "United States",
    "eventStartDate": "",
    "eventEndDate": "",
    "cfpStartDate": "",
    "cfpEndDate": "",
    "codeOfConduct": "",
    "latitude": 33.7700504,
    "longitude": -118.1937395,
    "cfpUrl": ""
  },
  {
    "name": "Lambda World",
    "topic": "",
    "url": "",
    "twitter": "",
    "city": "Cadiz",
    "stateProvince": "",
    "country": "Spain",
    "eventStartDate": "",
    "eventEndDate": "",
    "cfpStartDate": "",
    "cfpEndDate": "",
    "codeOfConduct": "",
    "latitude": 36.5270612,
    "longitude": -6.2885962,
    "cfpUrl": ""
  },
  {
    "name": "LCA",
    "topic": "",
    "url": "",
    "twitter": "",
    "city": "Auckland",
    "stateProvince": "",
    "country": "New Zealand",
    "eventStartDate": "",
    "eventEndDate": "",
    "cfpStartDate": "",
    "cfpEndDate": "",
    "codeOfConduct": "",
    "latitude": -36.8484597,
    "longitude": 174.7633315,
    "cfpUrl": ""
  },
  {
    "name": "Lesbians Who Tech",
    "topic": "",
    "url": "",
    "twitter": "",
    "city": "New York",
    "stateProvince": "NY",
    "country": "United States",
    "eventStartDate": "",
    "eventEndDate": "",
    "cfpStartDate": "",
    "cfpEndDate": "",
    "codeOfConduct": "",
    "latitude": 40.7127837,
    "longitude": -74.0059413,
    "cfpUrl": ""
  },
  {
    "name": "LibertyJS",
    "topic": "",
    "url": "",
    "twitter": "",
    "city": "Philadelphia",
    "stateProvince": "PA",
    "country": "United States",
    "eventStartDate": "",
    "eventEndDate": "",
    "cfpStartDate": "",
    "cfpEndDate": "",
    "codeOfConduct": "",
    "latitude": 39.9525839,
    "longitude": -75.1652215,
    "cfpUrl": ""
  },
  {
    "name": "Lucene Revolution",
    "topic": "",
    "url": "",
    "twitter": "",
    "city": "Dublin",
    "stateProvince": "",
    "country": "Ireland",
    "eventStartDate": "",
    "eventEndDate": "",
    "cfpStartDate": "",
    "cfpEndDate": "",
    "codeOfConduct": "",
    "latitude": 53.3498053,
    "longitude": -6.2603097,
    "cfpUrl": ""
  },
  {
    "name": "MA women's conference",
    "topic": "",
    "url": "",
    "twitter": "",
    "city": "Boston",
    "stateProvince": "MA",
    "country": "United States",
    "eventStartDate": "",
    "eventEndDate": "",
    "cfpStartDate": "",
    "cfpEndDate": "",
    "codeOfConduct": "",
    "latitude": 42.3600825,
    "longitude": -71.0588801,
    "cfpUrl": ""
  },
  {
    "name": "Mac Admin & Developer Conference UK",
    "topic": "",
    "url": "http://www.macad.uk/",
    "twitter": "",
    "city": "London",
    "stateProvince": "",
    "country": "United Kingdom",
    "eventStartDate": "",
    "eventEndDate": "",
    "cfpStartDate": "",
    "cfpEndDate": "",
    "codeOfConduct": "",
    "latitude": 51.5073509,
    "longitude": -0.1277583,
    "cfpUrl": ""
  },
  {
    "name": "MacAdmins",
    "topic": "",
    "url": "",
    "twitter": "",
    "city": "State College",
    "stateProvince": "PA",
    "country": "United States",
    "eventStartDate": "",
    "eventEndDate": "",
    "cfpStartDate": "",
    "cfpEndDate": "",
    "codeOfConduct": "",
    "latitude": 40.7933949,
    "longitude": -77.8600012,
    "cfpUrl": ""
  },
  {
    "name": "MakingWeb",
    "topic": "",
    "url": "",
    "twitter": "",
    "city": "Oslo",
    "stateProvince": "",
    "country": "Norway",
    "eventStartDate": "",
    "eventEndDate": "",
    "cfpStartDate": "",
    "cfpEndDate": "",
    "codeOfConduct": "",
    "latitude": 59.9138688,
    "longitude": 10.7522454,
    "cfpUrl": ""
  },
  {
    "name": "MALWARE",
    "topic": "",
    "url": "http://isiom.wssrl.org/",
    "twitter": "",
    "city": "Puerto Rico",
    "stateProvince": "PR",
    "country": "United States",
    "eventStartDate": "",
    "eventEndDate": "",
    "cfpStartDate": "",
    "cfpEndDate": "",
    "codeOfConduct": "",
    "latitude": 18.220833,
    "longitude": -66.590149,
    "cfpUrl": ""
  },
  {
    "name": "MCE",
    "topic": "",
    "url": "http://2017.mceconf.com/",
    "twitter": "",
    "city": "Warsaw",
    "stateProvince": "",
    "country": "Poland",
    "eventStartDate": "",
    "eventEndDate": "",
    "cfpStartDate": "",
    "cfpEndDate": "",
    "codeOfConduct": "",
    "latitude": 52.2296756,
    "longitude": 21.0122287,
    "cfpUrl": ""
  },
  {
    "name": "mediaconvention (part of re:publica)",
    "topic": "",
    "url": "",
    "twitter": "",
    "city": "Berlin",
    "stateProvince": "",
    "country": "Germany",
    "eventStartDate": "",
    "eventEndDate": "",
    "cfpStartDate": "",
    "cfpEndDate": "",
    "codeOfConduct": "",
    "latitude": 52.52000659999999,
    "longitude": 13.404954,
    "cfpUrl": ""
  },
  {
    "name": "Microsoft Ignite",
    "topic": "",
    "url": "",
    "twitter": "",
    "city": "Orlando",
    "stateProvince": "FL",
    "country": "United States",
    "eventStartDate": "",
    "eventEndDate": "",
    "cfpStartDate": "",
    "cfpEndDate": "",
    "codeOfConduct": "",
    "latitude": 28.5383355,
    "longitude": -81.3792365,
    "cfpUrl": ""
  },
  {
    "name": "Microsoft MVP Summit",
    "topic": "",
    "url": "",
    "twitter": "",
    "city": "Redmond",
    "stateProvince": "WA",
    "country": "United States",
    "eventStartDate": "",
    "eventEndDate": "",
    "cfpStartDate": "",
    "cfpEndDate": "",
    "codeOfConduct": "",
    "latitude": 47.6739881,
    "longitude": -122.121512,
    "cfpUrl": ""
  },
  {
    "name": "Midwest JS",
    "topic": "",
    "url": "http://midwestjs.com/",
    "twitter": "",
    "city": "Minneapolis",
    "stateProvince": "MN",
    "country": "United States",
    "eventStartDate": "",
    "eventEndDate": "",
    "cfpStartDate": "",
    "cfpEndDate": "",
    "codeOfConduct": "Yes",
    "latitude": 44.977753,
    "longitude": -93.2650108,
    "cfpUrl": ""
  },
  {
    "name": "Midwest PHP",
    "topic": "",
    "url": "",
    "twitter": "",
    "city": "Minneapolis",
    "stateProvince": "MN",
    "country": "United States",
    "eventStartDate": "",
    "eventEndDate": "",
    "cfpStartDate": "",
    "cfpEndDate": "",
    "codeOfConduct": "",
    "latitude": 44.977753,
    "longitude": -93.2650108,
    "cfpUrl": ""
  },
  {
    "name": "Midwest Tech Fest",
    "topic": "",
    "url": "",
    "twitter": "",
    "city": "Columbus",
    "stateProvince": "OH",
    "country": "United States",
    "eventStartDate": "",
    "eventEndDate": "",
    "cfpStartDate": "",
    "cfpEndDate": "",
    "codeOfConduct": "",
    "latitude": 39.9611755,
    "longitude": -82.99879419999999,
    "cfpUrl": ""
  },
  {
    "name": "Midwest.io",
    "topic": "",
    "url": "http://midwest.io/",
    "twitter": "",
    "city": "Kansas City",
    "stateProvince": "MO",
    "country": "United States",
    "eventStartDate": "",
    "eventEndDate": "",
    "cfpStartDate": "",
    "cfpEndDate": "",
    "codeOfConduct": "",
    "latitude": 39.0997265,
    "longitude": -94.5785667,
    "cfpUrl": ""
  },
  {
    "name": "MidwestUX",
    "topic": "",
    "url": "",
    "twitter": "",
    "city": "Pittsburgh",
    "stateProvince": "PA",
    "country": "United States",
    "eventStartDate": "",
    "eventEndDate": "",
    "cfpStartDate": "",
    "cfpEndDate": "",
    "codeOfConduct": "",
    "latitude": 40.44062479999999,
    "longitude": -79.9958864,
    "cfpUrl": ""
  },
  {
    "name": "Mirror Conf 2017",
    "topic": "",
    "url": "http://www.mirrorconf.com/",
    "twitter": "",
    "city": "Braga",
    "stateProvince": "",
    "country": "Portugal",
    "eventStartDate": "",
    "eventEndDate": "",
    "cfpStartDate": "",
    "cfpEndDate": "",
    "codeOfConduct": "",
    "latitude": 41.5454486,
    "longitude": -8.426506999999999,
    "cfpUrl": ""
  },
  {
    "name": "Mobile Dev Summit",
    "topic": "",
    "url": "",
    "twitter": "",
    "city": "Bangalore",
    "stateProvince": "",
    "country": "India",
    "eventStartDate": "",
    "eventEndDate": "",
    "cfpStartDate": "",
    "cfpEndDate": "",
    "codeOfConduct": "",
    "latitude": 12.9715987,
    "longitude": 77.5945627,
    "cfpUrl": ""
  },
  {
    "name": "Mobile Era",
    "topic": "",
    "url": "http://mobileera.rocks/",
    "twitter": "",
    "city": "Oslo",
    "stateProvince": "",
    "country": "Norway",
    "eventStartDate": "",
    "eventEndDate": "",
    "cfpStartDate": "",
    "cfpEndDate": "",
    "codeOfConduct": "",
    "latitude": 59.9138688,
    "longitude": 10.7522454,
    "cfpUrl": ""
  },
  {
    "name": "MobileWebDevConf",
    "topic": "",
    "url": "",
    "twitter": "",
    "city": "San Francisco",
    "stateProvince": "CA",
    "country": "United States",
    "eventStartDate": "",
    "eventEndDate": "",
    "cfpStartDate": "",
    "cfpEndDate": "",
    "codeOfConduct": "",
    "latitude": 37.7749295,
    "longitude": -122.4194155,
    "cfpUrl": ""
  },
  {
    "name": "Monash University",
    "topic": "",
    "url": "",
    "twitter": "",
    "city": "Melbourne",
    "stateProvince": "",
    "country": "Australia",
    "eventStartDate": "",
    "eventEndDate": "",
    "cfpStartDate": "",
    "cfpEndDate": "",
    "codeOfConduct": "",
    "latitude": -37.8136276,
    "longitude": 144.9630576,
    "cfpUrl": ""
  },
  {
    "name": "MozFest",
    "topic": "",
    "url": "",
    "twitter": "",
    "city": "London",
    "stateProvince": "",
    "country": "United Kingdom",
    "eventStartDate": "",
    "eventEndDate": "",
    "cfpStartDate": "",
    "cfpEndDate": "",
    "codeOfConduct": "",
    "latitude": 51.5073509,
    "longitude": -0.1277583,
    "cfpUrl": ""
  },